[
  {
    "product": "Vesuvio",
    "price": 110,
    "variant": "standard",
    "restaurant": "Buddy's Grill & Pizzeria",
    "postcode": "73834",
    "latitude": 60.074018,
    "longitude": 15.929368,
    "code": "v2ql",
    "city": "Norberg"
  },
  {
    "product": "Vesuvio",
    "price": 140,
    "variant": "Standard",
    "restaurant": "Märtas Krog & Pizza",
    "postcode": "12060",
    "latitude": 59.29921047,
    "longitude": 18.0338333,
    "code": "eplh",
    "city": "Årsta"
  },
  {
    "product": "Vesuvio",
    "price": 99,
    "variant": "Standard",
    "restaurant": "Meet N' Eat",
    "postcode": "21533",
    "latitude": 55.5616473,
    "longitude": 12.9790631,
    "code": "dbsl",
    "city": "Malmö"
  },
  {
    "product": "Vesuvio",
    "price": 125,
    "variant": "",
    "restaurant": "City Kebab",
    "postcode": "90326",
    "latitude": 63.82537463,
    "longitude": 20.2598098,
    "code": "b4n6",
    "city": "Umeå"
  },
  {
    "product": "Vesuvio",
    "price": 95,
    "variant": "Barnpizza",
    "restaurant": "Pizzeria Parma Hofors",
    "postcode": "81334",
    "latitude": 60.54247,
    "longitude": 16.29213,
    "code": "s8qz",
    "city": "Hofors"
  },
  {
    "product": "Vesuvio",
    "price": 110,
    "variant": "standard",
    "restaurant": "Duo Grill",
    "postcode": "30252",
    "latitude": 56.66895,
    "longitude": 12.88882,
    "code": "gm8a",
    "city": "Halmstad"
  },
  {
    "product": "Vesuvio",
    "price": 105,
    "variant": "Standard",
    "restaurant": "Pizzeria Vanessa",
    "postcode": "73537",
    "latitude": 59.7033082,
    "longitude": 16.2436888,
    "code": "cvv5",
    "city": "Surahammar"
  },
  {
    "product": "Vesuvio",
    "price": 120,
    "variant": "Standard",
    "restaurant": "Food Court Rosendal",
    "postcode": "75331",
    "latitude": 59.8316735,
    "longitude": 17.6338159,
    "code": "qez3",
    "city": "Uppsala"
  },
  {
    "product": "Vesuvio",
    "price": 105,
    "variant": "standard",
    "restaurant": "Viva Bar & Kök",
    "postcode": "81330",
    "latitude": 60.541497,
    "longitude": 16.28923,
    "code": "r30h",
    "city": "Hofors"
  },
  {
    "product": "Vesuvio",
    "price": 120,
    "variant": "standard",
    "restaurant": "Pizzeria Prima",
    "postcode": "79230",
    "latitude": 61.003582,
    "longitude": 14.53646,
    "code": "v9or",
    "city": "Mora"
  },
  {
    "product": "Vesuvio",
    "price": 142,
    "variant": "Standard",
    "restaurant": "Pizzabageriet Prinsgatan",
    "postcode": "41305",
    "latitude": 57.6962141,
    "longitude": 11.9501786,
    "code": "s5vq",
    "city": "Göteborg"
  },
  {
    "product": "Vesuvio",
    "price": 95,
    "variant": "Standard",
    "restaurant": "La Diosa",
    "postcode": "66231",
    "latitude": 59.047201,
    "longitude": 12.7085546,
    "code": "v2cz",
    "city": "Åmål"
  },
  {
    "product": "Vesuvio",
    "price": 105,
    "variant": "Standard",
    "restaurant": "Costello Pizzeria",
    "postcode": "30254",
    "latitude": 56.6613582,
    "longitude": 12.8911191,
    "code": "t8b3",
    "city": "Halmstad"
  },
  {
    "product": "Vesuvio",
    "price": 115,
    "variant": "Standard",
    "restaurant": "Nyköpings Pizza Center",
    "postcode": "61131",
    "latitude": 58.7504687,
    "longitude": 17.0035162,
    "code": "zpfe",
    "city": "Nyköping"
  },
  {
    "product": "Vesuvio",
    "price": 119,
    "variant": "Standard",
    "restaurant": "Danie's Burger & Pizza",
    "postcode": "75233",
    "latitude": 59.857562,
    "longitude": 17.613405,
    "code": "s2el",
    "city": "Uppsala"
  },
  {
    "product": "Vesuvio",
    "price": 130,
    "variant": "Standard",
    "restaurant": "Pizzeria Gusto",
    "postcode": "27134",
    "latitude": 55.43038425,
    "longitude": 13.8191696,
    "code": "wsn2",
    "city": "Ystad"
  },
  {
    "product": "Vesuvio",
    "price": 130,
    "variant": "",
    "restaurant": "Amigos Pizzeria, Kolgrill & Pasta",
    "postcode": "17549",
    "latitude": 59.4021385,
    "longitude": 17.8019132,
    "code": "ffnr",
    "city": "Järfälla"
  },
  {
    "product": "Vesuvio",
    "price": 115,
    "variant": "",
    "restaurant": "Tasty7 Dag",
    "postcode": "14560",
    "latitude": 59.2345552,
    "longitude": 17.8520112,
    "code": "knjh",
    "city": "Norsborg"
  },
  {
    "product": "Vesuvio",
    "price": 119,
    "variant": "",
    "restaurant": "Grill Kings",
    "postcode": "21368",
    "latitude": 55.58475655,
    "longitude": 13.04550171,
    "code": "u4nv",
    "city": "Malmö"
  },
  {
    "product": "Vesuvio",
    "price": 120,
    "variant": "",
    "restaurant": "Bella Lanterna",
    "postcode": "35233",
    "latitude": 56.87707,
    "longitude": 14.8089,
    "code": "vl4a",
    "city": "Växjö"
  },
  {
    "product": "Vesuvio",
    "price": 120,
    "variant": "Standard",
    "restaurant": "Pizzeria Milano",
    "postcode": "50430",
    "latitude": 57.7124758,
    "longitude": 12.9426875,
    "code": "zp2v",
    "city": "Borås"
  },
  {
    "product": "Vesuvio",
    "price": 135,
    "variant": "Standard",
    "restaurant": "Pandora",
    "postcode": "61935",
    "latitude": 58.89615,
    "longitude": 17.54674,
    "code": "s3ym",
    "city": "Trosa"
  },
  {
    "product": "Vesuvio",
    "price": 120,
    "variant": "Standard",
    "restaurant": "Långpannan Pizzeria Restaurang",
    "postcode": "12953",
    "latitude": 59.2830216,
    "longitude": 17.9647947,
    "code": "nb9a",
    "city": "Hägersten"
  },
  {
    "product": "Vesuvio",
    "price": 115,
    "variant": "standard",
    "restaurant": "Pizza House",
    "postcode": "54233",
    "latitude": 58.710256,
    "longitude": 13.830379,
    "code": "s0tq",
    "city": "Mariestad"
  },
  {
    "product": "2. Vesuvio",
    "price": 109,
    "variant": "BarnPizza",
    "restaurant": "Pizzeria Reveljen",
    "postcode": "83138",
    "latitude": 63.177032,
    "longitude": 14.673778,
    "code": "s7zn",
    "city": "Östersund"
  },
  {
    "product": "Vesuvio",
    "price": 125,
    "variant": "Standard",
    "restaurant": "Pappa's pizzeria",
    "postcode": "41467",
    "latitude": 57.6912068,
    "longitude": 11.9297597,
    "code": "wget",
    "city": "Göteborg"
  },
  {
    "product": "Vesuvio",
    "price": 120,
    "variant": "standard",
    "restaurant": "Backa pizza plus",
    "postcode": "42241",
    "latitude": 57.73375,
    "longitude": 11.972514,
    "code": "v1wo",
    "city": "Hisings Backa"
  },
  {
    "product": "Vesuvio",
    "price": 130,
    "variant": "Standard",
    "restaurant": "Sjömarkens Pizzeria",
    "postcode": "51840",
    "latitude": 57.7156749,
    "longitude": 12.8347588,
    "code": "hzvz",
    "city": "Borås"
  },
  {
    "product": "2. Vesuvio",
    "price": 114,
    "variant": "",
    "restaurant": "Svalan Pizzeria",
    "postcode": "90421",
    "latitude": 63.8098232,
    "longitude": 20.2582336,
    "code": "s0ui",
    "city": "Umeå"
  },
  {
    "product": "Vesuvio",
    "price": 114,
    "variant": "Standard",
    "restaurant": "Palats Pizzeria & Restaurang",
    "postcode": "21154",
    "latitude": 55.5956475,
    "longitude": 13.0092921,
    "code": "nkn0",
    "city": "Malmö"
  },
  {
    "product": "Vesuvio",
    "price": 125,
    "variant": "",
    "restaurant": "Food Court Karlstad",
    "postcode": "65467",
    "latitude": 59.4064441,
    "longitude": 13.5180197,
    "code": "h80d",
    "city": "Karlstad"
  },
  {
    "product": "Vesuvio",
    "price": 109,
    "variant": "Standard",
    "restaurant": "Pizzeria Norr",
    "postcode": "64147",
    "latitude": 58.99851984,
    "longitude": 16.2164575,
    "code": "nwyq",
    "city": "Katrineholm"
  },
  {
    "product": "Vesuvio",
    "price": 125,
    "variant": "",
    "restaurant": "Food Court Centrum",
    "postcode": "70212",
    "latitude": 59.2717049,
    "longitude": 15.2209063,
    "code": "dp66",
    "city": "Örebro"
  },
  {
    "product": "Vesuvio",
    "price": 80,
    "variant": "Standard",
    "restaurant": "City Pizza",
    "postcode": "23153",
    "latitude": 55.37609,
    "longitude": 13.16272,
    "code": "s9lw",
    "city": "Trelleborg"
  },
  {
    "product": "Vesuvio",
    "price": 109,
    "variant": "standard",
    "restaurant": "Mio Mondo",
    "postcode": "96135",
    "latitude": 65.822536,
    "longitude": 21.681676,
    "code": "vv20",
    "city": "Boden"
  },
  {
    "product": "Vesuvio Pizza",
    "price": 130,
    "variant": "",
    "restaurant": "Arax Orientaliska",
    "postcode": "64752",
    "latitude": 59.255329,
    "longitude": 17.1044509,
    "code": "vceb",
    "city": "Åkers Styckebruk"
  },
  {
    "product": "Vesuvio",
    "price": 119,
    "variant": "",
    "restaurant": "Burda Kök & Bar",
    "postcode": "13646",
    "latitude": 59.1692764,
    "longitude": 18.1409867,
    "code": "dgjs",
    "city": "Haninge"
  },
  {
    "product": "Vesuvio",
    "price": 115,
    "variant": "",
    "restaurant": "Avenyn",
    "postcode": "64131",
    "latitude": 58.9932998,
    "longitude": 16.2182493,
    "code": "tzso",
    "city": "Katrineholm"
  },
  {
    "product": "Vesuvio",
    "price": 105,
    "variant": "Standard",
    "restaurant": "Amigo Pizzeria",
    "postcode": "64150",
    "latitude": 58.9895876,
    "longitude": 16.185785,
    "code": "iwai",
    "city": "Katrineholm"
  },
  {
    "product": "Vesuvio",
    "price": 125,
    "variant": "",
    "restaurant": "Food Court: Hallstahammar",
    "postcode": "73430",
    "latitude": 59.6165901,
    "longitude": 16.224664,
    "code": "x6fy",
    "city": "Hallstahammar"
  },
  {
    "product": "Vesuvio",
    "price": 125,
    "variant": "",
    "restaurant": "Food Court: Eslöv",
    "postcode": "24130",
    "latitude": 55.8369949,
    "longitude": 13.3026119,
    "code": "k3zv",
    "city": "Eslöv"
  },
  {
    "product": "Vesuvio",
    "price": 125,
    "variant": "",
    "restaurant": "Food Court: Mölndal",
    "postcode": "43153",
    "latitude": 57.6435803,
    "longitude": 12.0168417,
    "code": "ge5j",
    "city": "Göteborg"
  },
  {
    "product": "Vesuvio",
    "price": 149,
    "variant": "",
    "restaurant": "Hamnpaviljongen",
    "postcode": "43244",
    "latitude": 57.107373,
    "longitude": 12.2453113,
    "code": "hjt8",
    "city": "Varberg"
  },
  {
    "product": "Vesuvio",
    "price": 109,
    "variant": "standard",
    "restaurant": "Pizza 08",
    "postcode": "16846",
    "latitude": 59.3479419,
    "longitude": 17.87705,
    "code": "v7xp",
    "city": "Bromma"
  },
  {
    "product": "Vesuvio",
    "price": 130,
    "variant": "Standard",
    "restaurant": "Kebab House",
    "postcode": "63218",
    "latitude": 59.3716645,
    "longitude": 16.5133846,
    "code": "iezp",
    "city": "Eskilstuna"
  },
  {
    "product": "Vesuvio",
    "price": 125,
    "variant": "",
    "restaurant": "Food Court: Fruängen",
    "postcode": "12952",
    "latitude": 59.2883193,
    "longitude": 17.968983,
    "code": "avpv",
    "city": "Hägersten"
  },
  {
    "product": "Vesuvio",
    "price": 120,
    "variant": "standard",
    "restaurant": "Marklands Grillhouse & Pizza",
    "postcode": "41476",
    "latitude": 57.673868,
    "longitude": 11.93681,
    "code": "s4fs",
    "city": "Göteborg"
  },
  {
    "product": "Vesuvio",
    "price": 144,
    "variant": "",
    "restaurant": "Dornacci",
    "postcode": "55305",
    "latitude": 57.7730045,
    "longitude": 14.20569595,
    "code": "fcoz",
    "city": "Jönköping"
  },
  {
    "product": "Vesuvio",
    "price": 140,
    "variant": "Standard",
    "restaurant": "Rosen Pizzeria",
    "postcode": "17270",
    "latitude": 59.3616967,
    "longitude": 17.9707184,
    "code": "dci0",
    "city": "Sundbyberg"
  },
  {
    "product": "Pizza Vesuvio",
    "price": 155,
    "variant": "",
    "restaurant": "Skälby Pizzeria",
    "postcode": "17560",
    "latitude": 59.38652475,
    "longitude": 17.83708285,
    "code": "zqup",
    "city": "Järfälla"
  },
  {
    "product": "Vesuvio",
    "price": 105,
    "variant": "Standard",
    "restaurant": "Pizzeria Tölö",
    "postcode": "43440",
    "latitude": 57.5005108,
    "longitude": 12.0878433,
    "code": "kumf",
    "city": "Kungsbacka"
  },
  {
    "product": "1. Vesuvio",
    "price": 100,
    "variant": "standard",
    "restaurant": "Marco Polo Pizzeria",
    "postcode": "45143",
    "latitude": 58.3400272,
    "longitude": 11.9160681,
    "code": "i6et",
    "city": "Uddevalla"
  },
  {
    "product": "Vesuvio",
    "price": 115,
    "variant": "Standard",
    "restaurant": "La Conda pizzeria & restaurang",
    "postcode": "29132",
    "latitude": 56.0326859,
    "longitude": 14.1549087,
    "code": "fxdh",
    "city": "Kristianstad"
  },
  {
    "product": "Vesuvio",
    "price": 100,
    "variant": "Standard",
    "restaurant": "Pizzeria Maestro",
    "postcode": "59130",
    "latitude": 58.536108,
    "longitude": 15.0356852,
    "code": "ddbs",
    "city": "Motala"
  },
  {
    "product": "Vesuvio",
    "price": 110,
    "variant": "Standard",
    "restaurant": "Bistro 65",
    "postcode": "72338",
    "latitude": 59.6267273,
    "longitude": 16.5781925,
    "code": "clya",
    "city": "Västerås"
  },
  {
    "product": "Vesuvio",
    "price": 115,
    "variant": "Standard",
    "restaurant": "Rubys Pizzeria",
    "postcode": "14871",
    "latitude": 59.0207656,
    "longitude": 17.8254052,
    "code": "fywb",
    "city": "Sorunda"
  },
  {
    "product": "Vesuvio",
    "price": 110,
    "variant": "Standard",
    "restaurant": "Bella Pizza",
    "postcode": "18163",
    "latitude": 59.35150477,
    "longitude": 18.21945093,
    "code": "s7ia",
    "city": "Lidingö"
  },
  {
    "product": "Vesuvio",
    "price": 85,
    "variant": "Standard",
    "restaurant": "Pizzeria En Till",
    "postcode": "37235",
    "latitude": 56.204214,
    "longitude": 15.2714341,
    "code": "ged8",
    "city": "Ronneby"
  },
  {
    "product": "Vesuvio",
    "price": 150,
    "variant": "",
    "restaurant": "Lomero Kök & Bar",
    "postcode": "19252",
    "latitude": 59.44573649,
    "longitude": 17.96532874,
    "code": "s5uz",
    "city": "Sollentuna"
  },
  {
    "product": "Vesuvio",
    "price": 110,
    "variant": "Standard",
    "restaurant": "Pizzeria Torino",
    "postcode": "73338",
    "latitude": 59.9256486,
    "longitude": 16.5977627,
    "code": "qv0p",
    "city": "Sala"
  },
  {
    "product": "Vesuvio",
    "price": 130,
    "variant": "Standard",
    "restaurant": "Pizzeria Campino Falkenberg",
    "postcode": "31137",
    "latitude": 56.907899,
    "longitude": 12.506229,
    "code": "v4te",
    "city": "Falkenberg"
  },
  {
    "product": "Vesuvio",
    "price": 105,
    "variant": "Standard",
    "restaurant": "Maistrogrillen Vingåker",
    "postcode": "64330",
    "latitude": 59.045601,
    "longitude": 15.87212,
    "code": "s4zd",
    "city": "Vingåker"
  },
  {
    "product": "Vesuvio",
    "price": 110,
    "variant": "standard",
    "restaurant": "Simon's Pizzeria",
    "postcode": "17674",
    "latitude": 59.461638,
    "longitude": 17.8230726,
    "code": "v7em",
    "city": "Järfälla"
  },
  {
    "product": "Vesuvio",
    "price": 139,
    "variant": "Standard",
    "restaurant": "Helen Pizzeria",
    "postcode": "75318",
    "latitude": 59.8497974,
    "longitude": 17.6570931,
    "code": "ux4h",
    "city": "Uppsala"
  },
  {
    "product": "Vesuvio (03)",
    "price": 131,
    "variant": "STANDARD",
    "restaurant": "Campino Pizzeria",
    "postcode": "26151",
    "latitude": 55.8725386,
    "longitude": 12.8544184,
    "code": "r5ux",
    "city": "Landskrona"
  },
  {
    "product": "Vesuvio",
    "price": 110,
    "variant": "",
    "restaurant": "Kebab House",
    "postcode": "82452",
    "latitude": 61.7271266,
    "longitude": 17.1122394,
    "code": "e8j6",
    "city": "Hudiksvall"
  },
  {
    "product": "Vesuvio",
    "price": 149,
    "variant": "",
    "restaurant": "Café Boulevard Surdegspizza",
    "postcode": "17268",
    "latitude": 59.3641667,
    "longitude": 17.9669444,
    "code": "hyx4",
    "city": "Sundbyberg"
  },
  {
    "product": "Vesuvio",
    "price": 95,
    "variant": "standard",
    "restaurant": "Abba's Pizza",
    "postcode": "61331",
    "latitude": 58.6726699,
    "longitude": 17.1094098,
    "code": "wpni",
    "city": "Oxelösund"
  },
  {
    "product": "Vesuvio",
    "price": 130,
    "variant": "",
    "restaurant": "Turkiska Halal Köket",
    "postcode": "19252",
    "latitude": 59.4455851,
    "longitude": 17.9651205,
    "code": "ul3z",
    "city": "Sollentuna"
  },
  {
    "product": "Vesuvio",
    "price": 110,
    "variant": "Standard",
    "restaurant": "Matakuten Restaurang & Pizzeria",
    "postcode": "45153",
    "latitude": 58.3562781,
    "longitude": 11.9323927,
    "code": "s1a5",
    "city": "Uddevalla"
  },
  {
    "product": "Vesuvio",
    "price": 99,
    "variant": "Barnpizza",
    "restaurant": "Milano",
    "postcode": "64131",
    "latitude": 58.9937392,
    "longitude": 16.2105111,
    "code": "q4pu",
    "city": "Katrineholm"
  },
  {
    "product": "Vesuvio",
    "price": 129,
    "variant": "",
    "restaurant": "Nya Hamburgare Expressen",
    "postcode": "72217",
    "latitude": 59.6225148,
    "longitude": 16.5263468,
    "code": "ti5q",
    "city": "Västerås"
  },
  {
    "product": "Vesuvio",
    "price": 115,
    "variant": "Barnpizza",
    "restaurant": "Sannegårdens Pizzeria Trollhättan",
    "postcode": "46132",
    "latitude": 58.2844047,
    "longitude": 12.30258115,
    "code": "erk6",
    "city": "Trollhättan"
  },
  {
    "product": "Vesuvio",
    "price": 120,
    "variant": "Standard",
    "restaurant": "Pizzeria Papillon",
    "postcode": "55332",
    "latitude": 57.77614319,
    "longitude": 14.15737506,
    "code": "ebh3",
    "city": "Jönköping"
  },
  {
    "product": "Vesuvio",
    "price": 143,
    "variant": "standard",
    "restaurant": "Sannegården Lund",
    "postcode": "22350",
    "latitude": 55.7025894,
    "longitude": 13.1968469,
    "code": "r2m0",
    "city": "Lund"
  },
  {
    "product": "Vesuvio",
    "price": 144,
    "variant": "",
    "restaurant": "VESPA Lund",
    "postcode": "22220",
    "latitude": 55.70793,
    "longitude": 13.18899,
    "code": "s0lq",
    "city": "Lund"
  },
  {
    "product": "Vesuvio",
    "price": 110,
    "variant": "Standard",
    "restaurant": "Pizza Corner",
    "postcode": "81330",
    "latitude": 60.5416,
    "longitude": 16.28677,
    "code": "s2ic",
    "city": "Hofors"
  },
  {
    "product": "Vesuvio",
    "price": 110,
    "variant": "Standard",
    "restaurant": "Åhusmacken",
    "postcode": "29637",
    "latitude": 55.934054,
    "longitude": 14.287067,
    "code": "p5oj",
    "city": "Åhus"
  },
  {
    "product": "Vesuvio",
    "price": 129,
    "variant": "",
    "restaurant": "Pizza Hut Barkarby",
    "postcode": "17744",
    "latitude": 59.41333361,
    "longitude": 17.8619007,
    "code": "s0wv",
    "city": "Järfälla"
  },
  {
    "product": "Vesuvio",
    "price": 140,
    "variant": "",
    "restaurant": "Robbans Pizza",
    "postcode": "14733",
    "latitude": 59.1907897,
    "longitude": 17.822957,
    "code": "y3by",
    "city": "Tumba"
  },
  {
    "product": "5. Vesuvio",
    "price": 130,
    "variant": "Standard",
    "restaurant": "Pizzeria Mona Lisa Kumla",
    "postcode": "69231",
    "latitude": 59.1289778,
    "longitude": 15.1441206,
    "code": "r321",
    "city": "Kumla"
  },
  {
    "product": "Vesuvio",
    "price": 105,
    "variant": "standard",
    "restaurant": "La Rosa Pizzeria",
    "postcode": "59931",
    "latitude": 58.22948,
    "longitude": 14.65211,
    "code": "s1ij",
    "city": "Ödeshög"
  },
  {
    "product": "Vesuvio",
    "price": 105,
    "variant": "Standard",
    "restaurant": "Ljungdala pizzeria",
    "postcode": "28140",
    "latitude": 56.16700935,
    "longitude": 13.7878214,
    "code": "oyos",
    "city": "Hässleholm"
  },
  {
    "product": "Vesuvio",
    "price": 130,
    "variant": "Standard",
    "restaurant": "Pappagone Pizzeria",
    "postcode": "30249",
    "latitude": 56.6674032,
    "longitude": 12.8794153,
    "code": "dw9m",
    "city": "Halmstad"
  },
  {
    "product": "Vesuvio",
    "price": 129,
    "variant": "",
    "restaurant": "Örby Pizzeria",
    "postcode": "12543",
    "latitude": 59.2729665,
    "longitude": 18.0194334,
    "code": "s8nz",
    "city": "Älvsjö"
  },
  {
    "product": "Vesuvio",
    "price": 115,
    "variant": "",
    "restaurant": "Palermo Pizzeria",
    "postcode": "54132",
    "latitude": 58.39463285,
    "longitude": 13.83384385,
    "code": "ho9i",
    "city": "Skövde"
  },
  {
    "product": "Vesuvio",
    "price": 154,
    "variant": "",
    "restaurant": "Miklagård",
    "postcode": "75434",
    "latitude": 59.868105,
    "longitude": 17.6625557,
    "code": "pkiu",
    "city": "Uppsala"
  },
  {
    "product": "Vesuvio",
    "price": 115,
    "variant": "Standard",
    "restaurant": "Solen’s Pizzeria",
    "postcode": "25455",
    "latitude": 56.0687988,
    "longitude": 12.705392,
    "code": "lrtb",
    "city": "Helsingborg"
  },
  {
    "product": "Vesuvio",
    "price": 120,
    "variant": "",
    "restaurant": "Pizzeria Lilla Essingen Ibolina",
    "postcode": "11261",
    "latitude": 59.3253532,
    "longitude": 18.0077708,
    "code": "cc5c",
    "city": "Stockholm"
  },
  {
    "product": "Vesuvio",
    "price": 105,
    "variant": "Standard",
    "restaurant": "Adriatik",
    "postcode": "59335",
    "latitude": 57.76091653,
    "longitude": 16.62422553,
    "code": "uxkv",
    "city": "Västervik"
  },
  {
    "product": "Vesuvio",
    "price": 119,
    "variant": "Standard",
    "restaurant": "Montana Pizzeria",
    "postcode": "64432",
    "latitude": 59.4177732,
    "longitude": 16.4736168,
    "code": "s6eo",
    "city": "Torshälla"
  },
  {
    "product": "Vesuvio",
    "price": 105,
    "variant": "standard",
    "restaurant": "Leoparden",
    "postcode": "75433",
    "latitude": 59.87268835,
    "longitude": 17.674973,
    "code": "v0gg",
    "city": "Uppsala"
  },
  {
    "product": "Vesuvio",
    "price": 130,
    "variant": "standard",
    "restaurant": "Danviksklippan Pizza Express",
    "postcode": "11644",
    "latitude": 59.312446,
    "longitude": 18.106584,
    "code": "v6wq",
    "city": "Stockholm"
  },
  {
    "product": "Vesuvio",
    "price": 115,
    "variant": "Standard",
    "restaurant": "Venezia Pizzeria",
    "postcode": "52175",
    "latitude": 58.0967122,
    "longitude": 13.6318034,
    "code": "tnlv",
    "city": "Falköping"
  },
  {
    "product": "Vesuvio",
    "price": 100,
    "variant": "standard",
    "restaurant": "Säffle Pizzeria",
    "postcode": "66130",
    "latitude": 59.132648,
    "longitude": 12.919598,
    "code": "s6yu",
    "city": "Säffle"
  },
  {
    "product": "Vesuvio",
    "price": 125,
    "variant": "Standard",
    "restaurant": "Sibylla Gustavsberg",
    "postcode": "13430",
    "latitude": 59.32865858,
    "longitude": 18.39285724,
    "code": "s0kh",
    "city": "Gustavsberg"
  },
  {
    "product": "Vesuvio",
    "price": 135,
    "variant": "Standard",
    "restaurant": "Pizzeria Vilan",
    "postcode": "75752",
    "latitude": 59.8207413,
    "longitude": 17.6958355,
    "code": "w1i5",
    "city": "Uppsala"
  },
  {
    "product": "Vesuvio",
    "price": 125,
    "variant": "Standard",
    "restaurant": "Önsta Pizzeria",
    "postcode": "72243",
    "latitude": 59.6387355,
    "longitude": 16.5250543,
    "code": "rx6a",
    "city": "Västerås"
  },
  {
    "product": "Vesuvio",
    "price": 115,
    "variant": "Standard",
    "restaurant": "il Mafioso Pasteria & Pizzeria",
    "postcode": "14556",
    "latitude": 59.2400442,
    "longitude": 17.8465768,
    "code": "s4ei",
    "city": "Norsborg"
  },
  {
    "product": "Vesuvio",
    "price": 110,
    "variant": "Standard",
    "restaurant": "Restaurang Panorama",
    "postcode": "39237",
    "latitude": 56.6714529,
    "longitude": 16.3510347,
    "code": "s2yl",
    "city": "Kalmar"
  },
  {
    "product": "Vesuvio",
    "price": 110,
    "variant": "Standard",
    "restaurant": "Pizzeria Kviberg",
    "postcode": "41505",
    "latitude": 57.739788,
    "longitude": 12.0271165,
    "code": "hhxu",
    "city": "Göteborg"
  },
  {
    "product": "Vesuvio",
    "price": 119,
    "variant": "",
    "restaurant": "Chick 'n Flame",
    "postcode": "70354",
    "latitude": 59.2766517,
    "longitude": 15.2072783,
    "code": "y639",
    "city": "Örebro"
  },
  {
    "product": "Vesuvio",
    "price": 119,
    "variant": "standard",
    "restaurant": "Restaurang Tasty",
    "postcode": "97596",
    "latitude": 65.669067,
    "longitude": 22.0838466,
    "code": "a3og",
    "city": "Luleå"
  },
  {
    "product": "Vesuvio",
    "price": 119,
    "variant": "standard",
    "restaurant": "Pizzeria Palermo, Tyresö",
    "postcode": "13540",
    "latitude": 59.24649,
    "longitude": 18.21752,
    "code": "v3ha",
    "city": "Tyresö"
  },
  {
    "product": "Vesuvio",
    "price": 115,
    "variant": "Standard",
    "restaurant": "Stanytos Pizzeria",
    "postcode": "51433",
    "latitude": 57.4824355,
    "longitude": 13.3502769,
    "code": "j0i8",
    "city": "Tranemo"
  },
  {
    "product": "Vesuvio",
    "price": 115,
    "variant": "Standard",
    "restaurant": "Ankaret",
    "postcode": "80280",
    "latitude": 60.6749728,
    "longitude": 17.157354,
    "code": "poie",
    "city": "Gävle"
  },
  {
    "product": "Vesuvio",
    "price": 110,
    "variant": "Standard",
    "restaurant": "Bågen Pizza",
    "postcode": "25448",
    "latitude": 56.0810223,
    "longitude": 12.7053001,
    "code": "up0c",
    "city": "Helsingborg"
  },
  {
    "product": "Vesuvio",
    "price": 145,
    "variant": "Standard",
    "restaurant": "Bamse Pizzeria",
    "postcode": "64432",
    "latitude": 59.41997813,
    "longitude": 16.474535,
    "code": "k7ic",
    "city": "Torshälla"
  },
  {
    "product": "Vesuvio",
    "price": 125,
    "variant": "",
    "restaurant": "Food Court Falun",
    "postcode": "79171",
    "latitude": 60.6063186,
    "longitude": 15.629818,
    "code": "lgxs",
    "city": "Falun"
  },
  {
    "product": "Vesuvio",
    "price": 100,
    "variant": "standard",
    "restaurant": "Ali Baba Pizzeria",
    "postcode": "89141",
    "latitude": 63.31268,
    "longitude": 18.705465,
    "code": "s6qc",
    "city": "Örnsköldsvik"
  },
  {
    "product": "Vesuvio",
    "price": 120,
    "variant": "",
    "restaurant": "Pizzeria Cleopatra",
    "postcode": "85653",
    "latitude": 62.41903205,
    "longitude": 17.33562995,
    "code": "or81",
    "city": "Sundsvall"
  },
  {
    "product": "Vesuvio",
    "price": 125,
    "variant": "standard",
    "restaurant": "Norrtuna Pizzeria",
    "postcode": "15337",
    "latitude": 59.098902,
    "longitude": 17.574777,
    "code": "v3ki",
    "city": "Järna"
  },
  {
    "product": "Vesuvio",
    "price": 120,
    "variant": "Standard",
    "restaurant": "Hills Pizzeria",
    "postcode": "43150",
    "latitude": 57.6307206,
    "longitude": 12.0229133,
    "code": "umzg",
    "city": "Mölndal"
  },
  {
    "product": "Vesuvio",
    "price": 150,
    "variant": "Standard",
    "restaurant": "Atillas Pizza Deli & Pasta",
    "postcode": "15241",
    "latitude": 59.20247995,
    "longitude": 17.63253995,
    "code": "z93d",
    "city": "Södertälje"
  },
  {
    "product": "Vesuvio",
    "price": 139,
    "variant": "Standard",
    "restaurant": "Pizzeria Ferrari",
    "postcode": "43540",
    "latitude": 57.6519418,
    "longitude": 12.138138,
    "code": "f8ga",
    "city": "Mölnlycke"
  },
  {
    "product": "Vesuvio",
    "price": 140,
    "variant": "standard",
    "restaurant": "Kronans Pizzeria",
    "postcode": "13660",
    "latitude": 59.171116,
    "longitude": 18.172423,
    "code": "ox0h",
    "city": "Brandbergen"
  },
  {
    "product": "Vesuvio",
    "price": 125,
    "variant": "",
    "restaurant": "Food Court: Karlskoga",
    "postcode": "69132",
    "latitude": 59.3264209,
    "longitude": 14.5172256,
    "code": "y2vm",
    "city": "Karlskoga"
  },
  {
    "product": "Vesuvio",
    "price": 100,
    "variant": "standard",
    "restaurant": "Sandvångens Pizzeria",
    "postcode": "26141",
    "latitude": 55.8823577,
    "longitude": 12.8349839,
    "code": "xz84",
    "city": "Landskrona"
  },
  {
    "product": "Vesuvio",
    "price": 110,
    "variant": "standard",
    "restaurant": "Peggy's",
    "postcode": "80632",
    "latitude": 60.692306,
    "longitude": 17.117868,
    "code": "y2wl",
    "city": "Gävle"
  },
  {
    "product": "Vesuvio",
    "price": 129,
    "variant": "Standard",
    "restaurant": "Salt & Peppar",
    "postcode": "95431",
    "latitude": 65.6422819,
    "longitude": 22.0118671,
    "code": "y8vq",
    "city": "Luleå"
  },
  {
    "product": "Vesuvio",
    "price": 110,
    "variant": "standard",
    "restaurant": "Miami Pizzeria",
    "postcode": "76251",
    "latitude": 59.745468,
    "longitude": 18.375222,
    "code": "zblm",
    "city": "Rimbo"
  },
  {
    "product": "Vesuvio",
    "price": 115,
    "variant": "standard",
    "restaurant": "Pizzeria Happy Time",
    "postcode": "56232",
    "latitude": 57.70399,
    "longitude": 14.118057,
    "code": "s3fr",
    "city": "Norrahammar"
  },
  {
    "product": "Vesuvio",
    "price": 115,
    "variant": "",
    "restaurant": "F-13 Pizzeria",
    "postcode": "60208",
    "latitude": 58.606282,
    "longitude": 16.1397808,
    "code": "ox6a",
    "city": "Norrköping"
  },
  {
    "product": "Vesuvio",
    "price": 135,
    "variant": "Standard",
    "restaurant": "Pizzabutik Verona",
    "postcode": "81134",
    "latitude": 60.6222141,
    "longitude": 16.7812879,
    "code": "oq9y",
    "city": "Sandviken"
  },
  {
    "product": "Vesuvio",
    "price": 115,
    "variant": "Standard",
    "restaurant": "Cornetto Bar",
    "postcode": "72213",
    "latitude": 59.6113,
    "longitude": 16.54873,
    "code": "s7mx",
    "city": "Västerås"
  },
  {
    "product": "Vesuvio",
    "price": 115,
    "variant": "Standard",
    "restaurant": "Grillhuset",
    "postcode": "79341",
    "latitude": 60.67426,
    "longitude": 15.08868,
    "code": "s3tj",
    "city": "Insjön"
  },
  {
    "product": "Vesuvio",
    "price": 105,
    "variant": "Standard",
    "restaurant": "Citygrillen",
    "postcode": "65224",
    "latitude": 59.38107982,
    "longitude": 13.50101401,
    "code": "s7ms",
    "city": "Karlstad"
  },
  {
    "product": "Vesuvio",
    "price": 95,
    "variant": "Standard",
    "restaurant": "Pizzeria Elan",
    "postcode": "77730",
    "latitude": 60.1397629,
    "longitude": 15.4106331,
    "code": "wj7y",
    "city": "Smedjebacken"
  },
  {
    "product": "Vesuvio",
    "price": 110,
    "variant": "Barnpizza",
    "restaurant": "Maribell Pizzeria",
    "postcode": "63342",
    "latitude": 59.3743245,
    "longitude": 16.523083,
    "code": "vi2u",
    "city": "Eskilstuna"
  },
  {
    "product": "Vesuvio",
    "price": 105,
    "variant": "standard",
    "restaurant": "Pizzeria Paris",
    "postcode": "46163",
    "latitude": 58.2621361,
    "longitude": 12.2972682,
    "code": "zgp5",
    "city": "Trollhättan"
  },
  {
    "product": "Vesuvio",
    "price": 85,
    "variant": "Barnpizza",
    "restaurant": "Duvan pizzeria",
    "postcode": "69230",
    "latitude": 59.1256347,
    "longitude": 15.1428532,
    "code": "zwkc",
    "city": "Kumla"
  },
  {
    "product": "Vesuvio",
    "price": 120,
    "variant": "",
    "restaurant": "Pizzeria Tre Kronor",
    "postcode": "76150",
    "latitude": 59.7651612,
    "longitude": 18.6920476,
    "code": "o5n7",
    "city": "Norrtälje"
  },
  {
    "product": "2. Vesuvio",
    "price": 140,
    "variant": "Standard",
    "restaurant": "Formaggio pizzeria",
    "postcode": "11233",
    "latitude": 59.334076,
    "longitude": 18.0346213,
    "code": "t4sk",
    "city": "Stockholm"
  },
  {
    "product": "Vesuvio",
    "price": 99,
    "variant": "Small",
    "restaurant": "I Love Pizza - Nya Hovås",
    "postcode": "43653",
    "latitude": 57.5986516,
    "longitude": 11.949091,
    "code": "b67z",
    "city": "Hovås"
  },
  {
    "product": "2.Vesuvio",
    "price": 130,
    "variant": "Standard",
    "restaurant": "Dana Pizzeria",
    "postcode": "52231",
    "latitude": 58.1805204,
    "longitude": 13.9593406,
    "code": "obo6",
    "city": "Tidaholm"
  },
  {
    "product": "Vesuvio",
    "price": 135,
    "variant": "",
    "restaurant": "Brödernas Borlänge",
    "postcode": "78437",
    "latitude": 60.4735989,
    "longitude": 15.4589145,
    "code": "gctc",
    "city": "Borlänge"
  },
  {
    "product": "Vesuvio",
    "price": 110,
    "variant": "standard",
    "restaurant": "Neptun Pizzeria",
    "postcode": "60242",
    "latitude": 58.591878,
    "longitude": 16.188834,
    "code": "v9hr",
    "city": "Norrköping"
  },
  {
    "product": "Vesuvio",
    "price": 120,
    "variant": "",
    "restaurant": "King Pizza",
    "postcode": "21448",
    "latitude": 55.5809345,
    "longitude": 13.0243208,
    "code": "s2ta",
    "city": "Malmö"
  },
  {
    "product": "4. Vesuvio",
    "price": 109,
    "variant": "standard",
    "restaurant": "Kings Pizzeria",
    "postcode": "64134",
    "latitude": 58.988686,
    "longitude": 16.226162,
    "code": "v2xv",
    "city": "Katrineholm"
  },
  {
    "product": "Vesuvio",
    "price": 105,
    "variant": "Standard",
    "restaurant": "Pizza Time",
    "postcode": "29159",
    "latitude": 56.0221508,
    "longitude": 14.1476896,
    "code": "v0nm",
    "city": "Kristianstad"
  },
  {
    "product": "Vesuvio",
    "price": 110,
    "variant": "Standard",
    "restaurant": "Baltazar Pizzeria",
    "postcode": "29153",
    "latitude": 56.0256905,
    "longitude": 14.1593247,
    "code": "owae",
    "city": "Kristianstad"
  },
  {
    "product": "Vesuvio",
    "price": 100,
    "variant": "Standard",
    "restaurant": "Monte Carlo",
    "postcode": "71130",
    "latitude": 59.593427,
    "longitude": 15.227811,
    "code": "l0tr",
    "city": "Lindesberg"
  },
  {
    "product": "Vesuvio",
    "price": 110,
    "variant": "Standard",
    "restaurant": "Handen Pizzeria",
    "postcode": "13648",
    "latitude": 59.16890395,
    "longitude": 18.1439766,
    "code": "yvlr",
    "city": "Handen"
  },
  {
    "product": "Vesuvio",
    "price": 134,
    "variant": "",
    "restaurant": "Ett Brasseri",
    "postcode": "19337",
    "latitude": 59.6283733,
    "longitude": 17.7198352,
    "code": "cm78",
    "city": "Sigtuna"
  },
  {
    "product": "Vesuvio",
    "price": 100,
    "variant": "Standard",
    "restaurant": "Nya Favoriten",
    "postcode": "46154",
    "latitude": 58.26691,
    "longitude": 12.28299,
    "code": "s7oh",
    "city": "Trollhättan"
  },
  {
    "product": "Vesuvio",
    "price": 125,
    "variant": "",
    "restaurant": "Venus Pizzeria Gårda",
    "postcode": "41648",
    "latitude": 57.7110248,
    "longitude": 11.9936723,
    "code": "mdjw",
    "city": "Göteborg"
  },
  {
    "product": "Vesuvio",
    "price": 110,
    "variant": "standard",
    "restaurant": "Amore",
    "postcode": "96168",
    "latitude": 65.81512,
    "longitude": 21.7146034,
    "code": "l5e5",
    "city": "Boden"
  },
  {
    "product": "Vesuvio",
    "price": 125,
    "variant": "Standard",
    "restaurant": "Sandareds Kvarterskrog",
    "postcode": "51830",
    "latitude": 57.7107504,
    "longitude": 12.7926387,
    "code": "unhv",
    "city": "Sandared"
  },
  {
    "product": "Vesuvio",
    "price": 129,
    "variant": "",
    "restaurant": "Pizza Hut Heron City",
    "postcode": "14175",
    "latitude": 59.26700331,
    "longitude": 17.91064662,
    "code": "s6ar",
    "city": "Kungens Kurva"
  },
  {
    "product": "Vesuvio",
    "price": 120,
    "variant": "",
    "restaurant": "Tryffel Restaurang & Bar",
    "postcode": "16741",
    "latitude": 59.33650138,
    "longitude": 17.98795995,
    "code": "s9vi",
    "city": "Bromma"
  },
  {
    "product": "Vesuvio",
    "price": 115,
    "variant": "standard",
    "restaurant": "Medya Pizzeria",
    "postcode": "30248",
    "latitude": 56.672108,
    "longitude": 12.86732,
    "code": "v3vz",
    "city": "Halmstad"
  },
  {
    "product": "Vesuvio",
    "price": 95,
    "variant": "Standard",
    "restaurant": "The Corner",
    "postcode": "16555",
    "latitude": 59.3675782,
    "longitude": 17.8433358,
    "code": "wejc",
    "city": "Hässelby"
  },
  {
    "product": "Vesuvio",
    "price": 110,
    "variant": "",
    "restaurant": "MIAMI RESTAURANG Falköping",
    "postcode": "52130",
    "latitude": 58.16725592,
    "longitude": 13.53683287,
    "code": "zc6r",
    "city": "Falköping"
  },
  {
    "product": "Vesuvio",
    "price": 100,
    "variant": "standard",
    "restaurant": "Timrå Onlinepizza",
    "postcode": "86030",
    "latitude": 62.500025,
    "longitude": 17.363862,
    "code": "ptdp",
    "city": "Sörberge"
  },
  {
    "product": "Vesuvio",
    "price": 115,
    "variant": "",
    "restaurant": "Titanic Pizzeria",
    "postcode": "86335",
    "latitude": 62.4336973,
    "longitude": 17.38562474,
    "code": "i77j",
    "city": "Sundsvall"
  },
  {
    "product": "Vesuvio",
    "price": 125,
    "variant": "",
    "restaurant": "Food Court Fagersta",
    "postcode": "73748",
    "latitude": 60.0079892,
    "longitude": 15.7864394,
    "code": "sv6v",
    "city": "Fagersta"
  },
  {
    "product": "Vesuvio Pizza",
    "price": 110,
    "variant": "Standard",
    "restaurant": "Mabell",
    "postcode": "30224",
    "latitude": 56.6744099,
    "longitude": 12.8591099,
    "code": "mgrj",
    "city": "Halmstad"
  },
  {
    "product": "3. Vesuvio",
    "price": 120,
    "variant": "",
    "restaurant": "Dorado Pizzeria",
    "postcode": "41262",
    "latitude": 57.6807631,
    "longitude": 11.98826675,
    "code": "c1dz",
    "city": "Göteborg"
  },
  {
    "product": "Vesuvio",
    "price": 95,
    "variant": "standard",
    "restaurant": "Pizza Express",
    "postcode": "97434",
    "latitude": 65.583338,
    "longitude": 22.198755,
    "code": "v4lf",
    "city": "Luleå"
  },
  {
    "product": "Vesuvio",
    "price": 105,
    "variant": "standard",
    "restaurant": "Älvängen Pizzeria",
    "postcode": "44632",
    "latitude": 57.957389,
    "longitude": 12.119292,
    "code": "s4gc",
    "city": "Älvängen"
  },
  {
    "product": "Vesuvio",
    "price": 115,
    "variant": "",
    "restaurant": "Pizzeria Pronto",
    "postcode": "82434",
    "latitude": 61.74551591,
    "longitude": 17.11764117,
    "code": "rgyq",
    "city": "Hudiksvall"
  },
  {
    "product": "2. Vesuvio",
    "price": 105,
    "variant": "standard",
    "restaurant": "Orrholmens Pizzeria, Indiskt & Asiatiskt",
    "postcode": "65227",
    "latitude": 59.3687094,
    "longitude": 13.4987736,
    "code": "m5bg",
    "city": "Karlstad"
  },
  {
    "product": "Vesuvio",
    "price": 115,
    "variant": "standard",
    "restaurant": "Erikslusts Pizzeria",
    "postcode": "21771",
    "latitude": 55.593842,
    "longitude": 12.968267,
    "code": "v7fg",
    "city": "Malmö"
  },
  {
    "product": "Vesuvio",
    "price": 139,
    "variant": "Standard",
    "restaurant": "Pizzeria Marco Polo",
    "postcode": "85645",
    "latitude": 62.39812,
    "longitude": 17.33237,
    "code": "s3je",
    "city": "Sundsvall"
  },
  {
    "product": "Vesuvio",
    "price": 125,
    "variant": "Standardpizza",
    "restaurant": "Björkskatans Restaurang & Pizzeria",
    "postcode": "97633",
    "latitude": 65.61488,
    "longitude": 22.17738,
    "code": "e6kv",
    "city": "Luleå"
  },
  {
    "product": "Vesuvio",
    "price": 115,
    "variant": "standard",
    "restaurant": "Pizzeria Athens",
    "postcode": "46233",
    "latitude": 58.380604,
    "longitude": 12.321525,
    "code": "v2nz",
    "city": "Vänersborg"
  },
  {
    "product": "Vesuvio",
    "price": 105,
    "variant": "standard",
    "restaurant": "Buddys City",
    "postcode": "80311",
    "latitude": 60.675796,
    "longitude": 17.145039,
    "code": "rbp6",
    "city": "Gävle"
  },
  {
    "product": "Vesuvio",
    "price": 160,
    "variant": "standard",
    "restaurant": "Hannas pizza och kök",
    "postcode": "72219",
    "latitude": 59.62109693,
    "longitude": 16.5461783,
    "code": "v1oz",
    "city": "Västerås"
  },
  {
    "product": "Vesuvio",
    "price": 155,
    "variant": "Standard",
    "restaurant": "Il Forno da Gino",
    "postcode": "11246",
    "latitude": 59.33477325,
    "longitude": 18.0309938,
    "code": "s0jk",
    "city": "Stockholm"
  },
  {
    "product": "Vesuvio",
    "price": 160,
    "variant": "",
    "restaurant": "Vårby Grillen",
    "postcode": "14340",
    "latitude": 59.2643527,
    "longitude": 17.8836315,
    "code": "e9rk",
    "city": "Vårby"
  },
  {
    "product": "Vesuvio",
    "price": 130,
    "variant": "Standard",
    "restaurant": "Pizzeria Yam Yam",
    "postcode": "60234",
    "latitude": 58.585647,
    "longitude": 16.193616,
    "code": "ikjy",
    "city": "Norrköping"
  },
  {
    "product": "P-02 Vesuvio",
    "price": 119,
    "variant": "",
    "restaurant": "Thai Garden",
    "postcode": "94132",
    "latitude": 65.3182214,
    "longitude": 21.4808606,
    "code": "h90i",
    "city": "Piteå"
  },
  {
    "product": "Vesuvio",
    "price": 105,
    "variant": "",
    "restaurant": "Don Fernando",
    "postcode": "12452",
    "latitude": 59.26742722,
    "longitude": 18.0380953,
    "code": "v4xs",
    "city": "Bandhagen"
  },
  {
    "product": "Vesuvio",
    "price": 99,
    "variant": "standard",
    "restaurant": "Pizzeria Di Melki",
    "postcode": "29145",
    "latitude": 56.0425948,
    "longitude": 14.1794088,
    "code": "xoc3",
    "city": "Kristianstad"
  },
  {
    "product": "Vesuvio",
    "price": 119,
    "variant": "",
    "restaurant": "Lokanta Kolgrill & Meze",
    "postcode": "12678",
    "latitude": 59.29012015,
    "longitude": 17.99897075,
    "code": "wyot",
    "city": "Hägersten"
  },
  {
    "product": "Vesuvio",
    "price": 135,
    "variant": "Standard",
    "restaurant": "Stockholm Pizza",
    "postcode": "11228",
    "latitude": 59.3323733,
    "longitude": 18.0448794,
    "code": "s7py",
    "city": "Stockholm"
  },
  {
    "product": "Vesuvio",
    "price": 121,
    "variant": "Standard",
    "restaurant": "American Take Away",
    "postcode": "17744",
    "latitude": 59.41054916,
    "longitude": 17.86443273,
    "code": "d3yx",
    "city": "Järfälla"
  },
  {
    "product": "Vesuvio",
    "price": 125,
    "variant": "",
    "restaurant": "Italiensk Pizzeria Deli Pasta & Grill",
    "postcode": "74631",
    "latitude": 59.55980397,
    "longitude": 17.53833397,
    "code": "o69y",
    "city": "Bålsta"
  },
  {
    "product": "Vesuvio",
    "price": 115,
    "variant": "Standard",
    "restaurant": "Pizzeria Cesar",
    "postcode": "21455",
    "latitude": 55.5738694,
    "longitude": 13.020309,
    "code": "n2gr",
    "city": "Malmö"
  },
  {
    "product": "Vesuvio",
    "price": 127,
    "variant": "standard",
    "restaurant": "Amanos pizzeria och restaurang",
    "postcode": "21131",
    "latitude": 55.607165,
    "longitude": 13.017745,
    "code": "v1xe",
    "city": "Malmö"
  },
  {
    "product": "Vesuvio",
    "price": 115,
    "variant": "Standard",
    "restaurant": "Pizzeria Barlovento",
    "postcode": "75233",
    "latitude": 59.8575041,
    "longitude": 17.6133698,
    "code": "en81",
    "city": "Uppsala"
  },
  {
    "product": "Vesuvio",
    "price": 90,
    "variant": "Standard",
    "restaurant": "Folkets Pizzeria",
    "postcode": "21435",
    "latitude": 55.59223972,
    "longitude": 13.01522177,
    "code": "mrze",
    "city": "Malmö"
  },
  {
    "product": "Vesuvio",
    "price": 90,
    "variant": "Standard",
    "restaurant": "Sicilia House",
    "postcode": "64130",
    "latitude": 58.995167,
    "longitude": 16.2047353,
    "code": "lebe",
    "city": "Katrineholm"
  },
  {
    "product": "Vesuvio",
    "price": 109,
    "variant": "standard",
    "restaurant": "Mon Ami",
    "postcode": "89230",
    "latitude": 63.2667,
    "longitude": 18.694162,
    "code": "v9go",
    "city": "Domsjö"
  },
  {
    "product": "Vesuvio",
    "price": 105,
    "variant": "Standard",
    "restaurant": "Brothers Pizzeria",
    "postcode": "80266",
    "latitude": 60.6696333,
    "longitude": 17.14145175,
    "code": "d62u",
    "city": "Gävle"
  },
  {
    "product": "Vesuvio",
    "price": 130,
    "variant": "standard",
    "restaurant": "Pizzeria Florens",
    "postcode": "58220",
    "latitude": 58.417481,
    "longitude": 15.617465,
    "code": "v9uz",
    "city": "Linköping"
  },
  {
    "product": "Vesuvio",
    "price": 109,
    "variant": "Standard",
    "restaurant": "Kristianstads Pizzeria",
    "postcode": "29129",
    "latitude": 56.0326997,
    "longitude": 14.1545171,
    "code": "onhx",
    "city": "Kristianstad"
  },
  {
    "product": "Vesuvio",
    "price": 119,
    "variant": "",
    "restaurant": "Ronyas Restaurang",
    "postcode": "90329",
    "latitude": 63.8261443,
    "longitude": 20.2684436,
    "code": "vssh",
    "city": "Umeå"
  },
  {
    "product": "Vesuvio",
    "price": 150,
    "variant": "",
    "restaurant": "Gröndals Grill & Pizzeria",
    "postcode": "11768",
    "latitude": 59.31583635,
    "longitude": 18.0098265,
    "code": "f1dy",
    "city": "Stockholm"
  },
  {
    "product": "Vesuvio",
    "price": 100,
    "variant": "",
    "restaurant": "Linas pizzeria & steakhouse (fd La guna)",
    "postcode": "89141",
    "latitude": 63.3086,
    "longitude": 18.711532,
    "code": "v7jm",
    "city": "Örnsköldsvik"
  },
  {
    "product": "Vesuvio",
    "price": 129,
    "variant": "Standard",
    "restaurant": "Kaffe House",
    "postcode": "29431",
    "latitude": 56.0522394,
    "longitude": 14.5839664,
    "code": "aax2",
    "city": "Sölvesborg"
  },
  {
    "product": "Vesuvio",
    "price": 110,
    "variant": "Standard",
    "restaurant": "Knekten Gatukök & Pizzeria",
    "postcode": "57531",
    "latitude": 57.667484,
    "longitude": 14.978571,
    "code": "v1kb",
    "city": "Eksjö"
  },
  {
    "product": "Vesuvio",
    "price": 115,
    "variant": "Standard",
    "restaurant": "Baloo Grillen",
    "postcode": "90730",
    "latitude": 63.81208395,
    "longitude": 20.3148805,
    "code": "s2xz",
    "city": "Umeå"
  },
  {
    "product": "Vesuvio",
    "price": 105,
    "variant": "Standard",
    "restaurant": "Frasses Hudiksvall",
    "postcode": "82443",
    "latitude": 61.7381293,
    "longitude": 17.10419355,
    "code": "r4ww",
    "city": "Hudiksvall"
  },
  {
    "product": "Vesuvio",
    "price": 110,
    "variant": "standard",
    "restaurant": "La Stella",
    "postcode": "73741",
    "latitude": 60.000956,
    "longitude": 15.811843,
    "code": "qtjg",
    "city": "Fagersta"
  },
  {
    "product": "Vesuvio",
    "price": 169,
    "variant": "",
    "restaurant": "Pizzeria Rosabella",
    "postcode": "19146",
    "latitude": 59.4284308,
    "longitude": 17.9383672,
    "code": "s3zo",
    "city": "Sollentuna"
  },
  {
    "product": "Vesuvio",
    "price": 120,
    "variant": "",
    "restaurant": "Mona Vera",
    "postcode": "70346",
    "latitude": 59.2725309,
    "longitude": 15.1760197,
    "code": "b9l4",
    "city": "Örebro"
  },
  {
    "product": "Vesuvio",
    "price": 130,
    "variant": "",
    "restaurant": "Pizzeria Ramona",
    "postcode": "21152",
    "latitude": 55.602375,
    "longitude": 13.0178,
    "code": "gcgc",
    "city": "Malmö"
  },
  {
    "product": "Vesuvio",
    "price": 110,
    "variant": "Standard",
    "restaurant": "Bella Rosa Restaurang & Pizzeria",
    "postcode": "66142",
    "latitude": 59.1324896,
    "longitude": 12.9299982,
    "code": "ekl2",
    "city": "Säffle"
  },
  {
    "product": "Vesuvio",
    "price": 135,
    "variant": "",
    "restaurant": "Fuori Di Pizza Hantverkargatan",
    "postcode": "11238",
    "latitude": 59.33105,
    "longitude": 18.03166,
    "code": "s2gr",
    "city": "Stockholm"
  },
  {
    "product": "Vesuvio",
    "price": 163,
    "variant": "",
    "restaurant": "Askrike Pizzeria",
    "postcode": "18146",
    "latitude": 59.3739346,
    "longitude": 18.1622773,
    "code": "s6xs",
    "city": "Lidingö"
  },
  {
    "product": "Vesuvio",
    "price": 110,
    "variant": "Standard",
    "restaurant": "Amore Restaurang",
    "postcode": "82130",
    "latitude": 61.3435017,
    "longitude": 16.3641237,
    "code": "s4h5",
    "city": "Bollnäs"
  },
  {
    "product": "Vesuvio",
    "price": 140,
    "variant": "Standard",
    "restaurant": "Pizzeria Ängby",
    "postcode": "16856",
    "latitude": 59.3473042,
    "longitude": 17.9078652,
    "code": "rx9k",
    "city": "Bromma"
  },
  {
    "product": "Vesuvio",
    "price": 120,
    "variant": "Standard",
    "restaurant": "Morsans Pizzeria",
    "postcode": "89178",
    "latitude": 63.258431,
    "longitude": 18.7775598,
    "code": "siwe",
    "city": "Bonässund"
  },
  {
    "product": "Vesuvio",
    "price": 105,
    "variant": "Standard",
    "restaurant": "Tre Kronor",
    "postcode": "98138",
    "latitude": 67.8484405,
    "longitude": 20.26798,
    "code": "swlf",
    "city": "Kiruna"
  },
  {
    "product": "Vesuvio",
    "price": 110,
    "variant": "standard",
    "restaurant": "Råda Gatukök & Pizzeria",
    "postcode": "43533",
    "latitude": 57.66901,
    "longitude": 12.096088,
    "code": "p1ff",
    "city": "Mölnlycke"
  },
  {
    "product": "Vesuvio",
    "price": 120,
    "variant": "",
    "restaurant": "Hedvigsborg pizzeria",
    "postcode": "50447",
    "latitude": 57.704454,
    "longitude": 12.95534,
    "code": "v4dn",
    "city": "Borås"
  },
  {
    "product": "Vesuvio",
    "price": 135,
    "variant": "Standard",
    "restaurant": "Svingen",
    "postcode": "90332",
    "latitude": 63.821055,
    "longitude": 20.2871313,
    "code": "zltp",
    "city": "Umeå"
  },
  {
    "product": "Vesuvio",
    "price": 99,
    "variant": "standard",
    "restaurant": "Ruds Vedugns Pizzeria",
    "postcode": "65466",
    "latitude": 59.4054218,
    "longitude": 13.51996929,
    "code": "v3sr",
    "city": "Karlstad"
  },
  {
    "product": "Vesuvio",
    "price": 125,
    "variant": "",
    "restaurant": "Restaurang San Remo",
    "postcode": "75337",
    "latitude": 59.87794,
    "longitude": 17.61898,
    "code": "s0xh",
    "city": "Uppsala"
  },
  {
    "product": "Vesuvio",
    "price": 120,
    "variant": "",
    "restaurant": "Pizzeria Campino",
    "postcode": "50330",
    "latitude": 57.7198783,
    "longitude": 12.937144,
    "code": "s0qj",
    "city": "Borås"
  },
  {
    "product": "Vesuvio",
    "price": 100,
    "variant": "standard",
    "restaurant": "Pizza Mia",
    "postcode": "79132",
    "latitude": 60.6150723,
    "longitude": 15.6382438,
    "code": "zfhu",
    "city": "Falun"
  },
  {
    "product": "Vesuvio",
    "price": 159,
    "variant": "Standard",
    "restaurant": "Bedy's",
    "postcode": "12048",
    "latitude": 59.2879238,
    "longitude": 18.0721807,
    "code": "y8ux",
    "city": "Enskede Gård"
  },
  {
    "product": "Vesuvio",
    "price": 130,
    "variant": "Standard",
    "restaurant": "San Marino",
    "postcode": "54937",
    "latitude": 58.3871184,
    "longitude": 13.8582489,
    "code": "i3nd",
    "city": "Skövde"
  },
  {
    "product": "Vesuvio",
    "price": 99,
    "variant": "",
    "restaurant": "Shawrma Catalonia",
    "postcode": "19553",
    "latitude": 59.6158219,
    "longitude": 17.8280452,
    "code": "h1zi",
    "city": "Märsta"
  },
  {
    "product": "Vesuvio",
    "price": 100,
    "variant": "Standard",
    "restaurant": "Saxdalens Pizzeria",
    "postcode": "77270",
    "latitude": 60.1462947,
    "longitude": 14.9867579,
    "code": "gfp7",
    "city": "Saxdalen"
  },
  {
    "product": "Vesuvio ",
    "price": 169,
    "variant": "",
    "restaurant": "Strajk Alley",
    "postcode": "96164",
    "latitude": 65.8257744,
    "longitude": 21.6715424,
    "code": "rjs2",
    "city": "Boden"
  },
  {
    "product": "Vesuvio",
    "price": 129,
    "variant": "",
    "restaurant": "Pizza Hut Borlänge",
    "postcode": "78170",
    "latitude": 60.4859402,
    "longitude": 15.41663635,
    "code": "s3sc",
    "city": "Borlänge"
  },
  {
    "product": "Vesuvio",
    "price": 110,
    "variant": "Standard",
    "restaurant": "Slätta Pizzeria",
    "postcode": "79174",
    "latitude": 60.62104798,
    "longitude": 15.59598805,
    "code": "s2dq",
    "city": "Falun"
  },
  {
    "product": "Vesuvio",
    "price": 105,
    "variant": "",
    "restaurant": "Rönnäng Pizzeria",
    "postcode": "47141",
    "latitude": 57.93635,
    "longitude": 11.57858,
    "code": "s3ln",
    "city": "Rönnäng"
  },
  {
    "product": "Vesuvio",
    "price": 145,
    "variant": "",
    "restaurant": "Casa nostra kjula",
    "postcode": "63506",
    "latitude": 59.3648603,
    "longitude": 16.6826566,
    "code": "u0o9",
    "city": "Eskilstuna"
  },
  {
    "product": "Vesuvio",
    "price": 110,
    "variant": "Standard",
    "restaurant": "Bella Ciao Pizzeria",
    "postcode": "43740",
    "latitude": 57.5762589,
    "longitude": 12.077563,
    "code": "jj5f",
    "city": "Lindome"
  },
  {
    "product": "Vesuvio",
    "price": 110,
    "variant": "Standard",
    "restaurant": "Bjärnum Pizzeria",
    "postcode": "28020",
    "latitude": 56.2901299,
    "longitude": 13.7112268,
    "code": "rr1o",
    "city": "Bjärnum"
  },
  {
    "product": "Vesuvio",
    "price": 125,
    "variant": "Standard",
    "restaurant": "Portabellos",
    "postcode": "29141",
    "latitude": 56.0448733,
    "longitude": 14.1647951,
    "code": "sq69",
    "city": "Kristianstad"
  },
  {
    "product": "Vesuvio",
    "price": 130,
    "variant": "Standard",
    "restaurant": "Pizzeria Lilla Hörnet",
    "postcode": "19252",
    "latitude": 59.4410964,
    "longitude": 17.9380101,
    "code": "ydzc",
    "city": "Sollentuna"
  },
  {
    "product": "Vesuvio",
    "price": 120,
    "variant": "Standard",
    "restaurant": "Östanbäckens Pizza House",
    "postcode": "87131",
    "latitude": 62.6310182,
    "longitude": 17.9392516,
    "code": "h0tp",
    "city": "Härnösand"
  },
  {
    "product": "Vesuvio",
    "price": 142,
    "variant": "",
    "restaurant": "Kuben Tomtebo",
    "postcode": "90755",
    "latitude": 63.8081061,
    "longitude": 20.3647215,
    "code": "l5n8",
    "city": "Umeå"
  },
  {
    "product": "Vesuvio",
    "price": 110,
    "variant": "",
    "restaurant": "Svamptorget Pizzeria",
    "postcode": "75645",
    "latitude": 59.826191,
    "longitude": 17.618892,
    "code": "zwrj",
    "city": "Uppsala"
  },
  {
    "product": "Vesuvio",
    "price": 125,
    "variant": "",
    "restaurant": "Food Court: Eskilstuna",
    "postcode": "63228",
    "latitude": 59.3620834,
    "longitude": 16.505053,
    "code": "wizo",
    "city": "Eskilstuna"
  },
  {
    "product": "Vesuvio",
    "price": 154,
    "variant": "",
    "restaurant": "Ruccola Åkersberga",
    "postcode": "18430",
    "latitude": 59.4796203,
    "longitude": 18.30097935,
    "code": "oe3s",
    "city": "Åkersberga"
  },
  {
    "product": "Vesuvio",
    "price": 100,
    "variant": "Standard",
    "restaurant": "Sätra Pizzeria",
    "postcode": "80632",
    "latitude": 60.69187762,
    "longitude": 17.11613558,
    "code": "s9ez",
    "city": "Gävle"
  },
  {
    "product": "Vesuvio Pizza",
    "price": 100,
    "variant": "",
    "restaurant": "Ljura Pizzeria",
    "postcode": "60349",
    "latitude": 58.5805838,
    "longitude": 16.1978065,
    "code": "bz6c",
    "city": "Norrköping"
  },
  {
    "product": "Vesuvio",
    "price": 99,
    "variant": "",
    "restaurant": "Tunaholm Pizzeria & Sibylla",
    "postcode": "14743",
    "latitude": 59.2153392,
    "longitude": 17.8291333,
    "code": "edzs",
    "city": "Tumba"
  },
  {
    "product": "Vesuvio",
    "price": 110,
    "variant": "",
    "restaurant": "Pizzeria 39:an",
    "postcode": "55335",
    "latitude": 57.776564,
    "longitude": 14.15518227,
    "code": "lx1p",
    "city": "Jönköping"
  },
  {
    "product": "Vesuvio",
    "price": 90,
    "variant": "Standard",
    "restaurant": "Matcompaniet",
    "postcode": "89430",
    "latitude": 63.29389,
    "longitude": 18.62218,
    "code": "s1dy",
    "city": "Själevad"
  },
  {
    "product": "Vesuvio",
    "price": 150,
    "variant": "Standard",
    "restaurant": "Västergrillen",
    "postcode": "70342",
    "latitude": 59.2769124,
    "longitude": 15.2049223,
    "code": "s2lb",
    "city": "Örebro"
  },
  {
    "product": "Vesuvio",
    "price": 125,
    "variant": "",
    "restaurant": "Pizzeria empoli",
    "postcode": "58229",
    "latitude": 58.40805449,
    "longitude": 15.61833145,
    "code": "s8lq",
    "city": "Linköping"
  },
  {
    "product": "Vesuvio",
    "price": 107,
    "variant": "standard",
    "restaurant": "Gula Villan Express",
    "postcode": "43364",
    "latitude": 57.725489,
    "longitude": 12.0771495,
    "code": "jfke",
    "city": "Sävedalen"
  },
  {
    "product": "Vesuvio",
    "price": 145,
    "variant": "Standard",
    "restaurant": "FWP Firewood Pizza",
    "postcode": "93137",
    "latitude": 64.7556969,
    "longitude": 20.9813612,
    "code": "aqcz",
    "city": "Skellefteå"
  },
  {
    "product": "Vesuvio",
    "price": 160,
    "variant": "",
    "restaurant": "Sjöviks Pizzeria",
    "postcode": "11759",
    "latitude": 59.30706634,
    "longitude": 18.02924959,
    "code": "s6do",
    "city": "Stockholm"
  },
  {
    "product": "Vesuvio",
    "price": 195,
    "variant": "",
    "restaurant": "Esplanad",
    "postcode": "11449",
    "latitude": 59.3402241,
    "longitude": 18.0773486,
    "code": "s2od",
    "city": "Stockholm"
  },
  {
    "product": "Vesuvio",
    "price": 135,
    "variant": "Standard",
    "restaurant": "Grandpizzeria & Kolgrill",
    "postcode": "17741",
    "latitude": 59.4345662,
    "longitude": 17.8241012,
    "code": "h57h",
    "city": "Järfälla"
  },
  {
    "product": "Vesuvio",
    "price": 139,
    "variant": "",
    "restaurant": "Casa Nostra Tunafors",
    "postcode": "63220",
    "latitude": 59.36420334,
    "longitude": 16.5125287,
    "code": "s8oz",
    "city": "Eskilstuna"
  },
  {
    "product": "Vesuvio",
    "price": 129,
    "variant": "",
    "restaurant": "Pizza Hut Bromma Blocks",
    "postcode": "16867",
    "latitude": 59.3558189,
    "longitude": 17.9515231,
    "code": "s1ef",
    "city": "Bromma"
  },
  {
    "product": "Vesuvio",
    "price": 125,
    "variant": "",
    "restaurant": "Food Court: Linköping",
    "postcode": "58246",
    "latitude": 58.4083082,
    "longitude": 15.601331,
    "code": "aqov",
    "city": "Linköping"
  },
  {
    "product": "Vesuvio",
    "price": 109,
    "variant": "Standard",
    "restaurant": "Minikrogen Pizzeria",
    "postcode": "85231",
    "latitude": 62.38950417,
    "longitude": 17.31025013,
    "code": "xqo2",
    "city": "Sundsvall"
  },
  {
    "product": "Vesuvio",
    "price": 135,
    "variant": "",
    "restaurant": "Brödernas Gustavsberg",
    "postcode": "13440",
    "latitude": 59.3245203,
    "longitude": 18.3845347,
    "code": "j2ge",
    "city": "Gustavsberg"
  },
  {
    "product": "Vesuvio",
    "price": 135,
    "variant": "Standard",
    "restaurant": "Primo Italia-Deli",
    "postcode": "12248",
    "latitude": 59.27295,
    "longitude": 18.06886,
    "code": "s8az",
    "city": "Enskede"
  },
  {
    "product": "Vesuvio",
    "price": 100,
    "variant": "Standard",
    "restaurant": "Pizzeria Viktoria Grillen",
    "postcode": "70342",
    "latitude": 59.277694,
    "longitude": 15.20392825,
    "code": "uk3g",
    "city": "Örebro"
  },
  {
    "product": "Vesuvio",
    "price": 129,
    "variant": "",
    "restaurant": "Americano Pizza Hot",
    "postcode": "29131",
    "latitude": 56.0314435,
    "longitude": 14.15618359,
    "code": "ky9w",
    "city": "Kristianstad"
  },
  {
    "product": "Vesuvio",
    "price": 110,
    "variant": "Standard",
    "restaurant": "Snöstorps Pizzeria",
    "postcode": "30256",
    "latitude": 56.6709257,
    "longitude": 12.9120231,
    "code": "k6v5",
    "city": "Halmstad"
  },
  {
    "product": "Vesuvio",
    "price": 154,
    "variant": "standard",
    "restaurant": "Sthlm kebab och pizza",
    "postcode": "11239",
    "latitude": 59.3329952,
    "longitude": 18.0315801,
    "code": "v5ij",
    "city": "Stockholm"
  },
  {
    "product": "Vesuvio",
    "price": 104,
    "variant": "Standard",
    "restaurant": "Isak's Corner",
    "postcode": "80253",
    "latitude": 60.66770048,
    "longitude": 17.14611972,
    "code": "aq4i",
    "city": "Gävle"
  },
  {
    "product": "Vesuvio",
    "price": 150,
    "variant": "",
    "restaurant": "Tallkrogen Pizzeria",
    "postcode": "12260",
    "latitude": 59.2721234,
    "longitude": 18.0837789,
    "code": "tnid",
    "city": "Enskede"
  },
  {
    "product": "Vesuvio",
    "price": 95,
    "variant": "Standard",
    "restaurant": "Flens Pizzeria",
    "postcode": "64236",
    "latitude": 59.0533109,
    "longitude": 16.5834851,
    "code": "ruue",
    "city": "Flen"
  },
  {
    "product": "Vesuvio",
    "price": 115,
    "variant": "",
    "restaurant": "Sibylla Dallasburger och Pizza",
    "postcode": "13647",
    "latitude": 59.1784007,
    "longitude": 18.1433158,
    "code": "oor6",
    "city": "Haninge"
  },
  {
    "product": "Vesuvio",
    "price": 120,
    "variant": "Standard",
    "restaurant": "Pizzeria Di Metro",
    "postcode": "11763",
    "latitude": 59.3101451,
    "longitude": 18.0220551,
    "code": "mnno",
    "city": "Stockholm"
  },
  {
    "product": "Vesuvio",
    "price": 125,
    "variant": "",
    "restaurant": "Restaurang Oasen",
    "postcode": "12465",
    "latitude": 59.2571962,
    "longitude": 18.0271963,
    "code": "k2vj",
    "city": "Bandhagen"
  },
  {
    "product": "Vesuvio",
    "price": 164,
    "variant": "",
    "restaurant": "La Regina",
    "postcode": "16941",
    "latitude": 59.3618471,
    "longitude": 17.9960551,
    "code": "bxjd",
    "city": "Solna"
  },
  {
    "product": "Vesuvio",
    "price": 110,
    "variant": "Standard",
    "restaurant": "Bromölla Pizzeria",
    "postcode": "29538",
    "latitude": 56.065341,
    "longitude": 14.4715253,
    "code": "v5er",
    "city": "Bromölla"
  },
  {
    "product": "Vesuvio",
    "price": 125,
    "variant": "",
    "restaurant": "Restaurang Herrgårn Björknäs",
    "postcode": "13240",
    "latitude": 59.3157442,
    "longitude": 18.229318,
    "code": "h5e9",
    "city": "Saltsjö-Boo"
  },
  {
    "product": "Vesuvio",
    "price": 120,
    "variant": "",
    "restaurant": "San Remo Vedugnspizzeria",
    "postcode": "13549",
    "latitude": 59.2461023,
    "longitude": 18.2472949,
    "code": "pqdk",
    "city": "Tyresö"
  },
  {
    "product": "Pizza Vesuvio",
    "price": 140,
    "variant": "",
    "restaurant": "Pizzeria Quattro",
    "postcode": "11348",
    "latitude": 59.3444188,
    "longitude": 18.0527042,
    "code": "iwq4",
    "city": "Stockholm"
  },
  {
    "product": "Vesuvio",
    "price": 105,
    "variant": "Standard",
    "restaurant": "Altea Pizza & Restaurang",
    "postcode": "29431",
    "latitude": 56.0513504,
    "longitude": 14.5834286,
    "code": "vdcw",
    "city": "Sölvesborg"
  },
  {
    "product": "Vesuvio",
    "price": 120,
    "variant": "Standard",
    "restaurant": "Pizzabutik Bella Italia",
    "postcode": "85630",
    "latitude": 62.4007123,
    "longitude": 17.3395268,
    "code": "rcid",
    "city": "Sundsvall"
  },
  {
    "product": "Pizza Vesuvio",
    "price": 140,
    "variant": "",
    "restaurant": "Lilla näckrosen",
    "postcode": "17241",
    "latitude": 59.3685177,
    "longitude": 17.9794201,
    "code": "x9xy",
    "city": "Sundbyberg"
  },
  {
    "product": "Vesuvio",
    "price": 120,
    "variant": "",
    "restaurant": "Din pizzeria",
    "postcode": "56134",
    "latitude": 57.80915,
    "longitude": 14.274958,
    "code": "v4ho",
    "city": "Huskvarna"
  },
  {
    "product": "Vesuvio",
    "price": 135,
    "variant": "",
    "restaurant": "Johannes Grill",
    "postcode": "75233",
    "latitude": 59.85743685,
    "longitude": 17.62427106,
    "code": "s7fh",
    "city": "Uppsala"
  },
  {
    "product": "Vesuvio",
    "price": 100,
    "variant": "Barnpizza",
    "restaurant": "Pizzeria Venedig",
    "postcode": "29153",
    "latitude": 56.029286,
    "longitude": 14.162228,
    "code": "bngj",
    "city": "Kristianstad"
  },
  {
    "product": "Vesuvio",
    "price": 125,
    "variant": "",
    "restaurant": "Food Court Vingåker",
    "postcode": "64330",
    "latitude": 59.0422703,
    "longitude": 15.872375,
    "code": "b5gk",
    "city": "Vingåker"
  },
  {
    "product": "Vesuvio",
    "price": 150,
    "variant": "",
    "restaurant": "Restaurang Mariaplan",
    "postcode": "13441",
    "latitude": 59.3212486,
    "longitude": 18.3903801,
    "code": "pdk3",
    "city": "Gustavsberg"
  },
  {
    "product": "Vego vesuvio",
    "price": 110,
    "variant": "standard",
    "restaurant": "Haga Pizzeria",
    "postcode": "78431",
    "latitude": 60.487863,
    "longitude": 15.425742,
    "code": "v5eb",
    "city": "Borlänge"
  },
  {
    "product": "Vesuvio",
    "price": 105,
    "variant": "",
    "restaurant": "Pizzaoilo Bistro",
    "postcode": "43851",
    "latitude": 57.6537745,
    "longitude": 12.4979371,
    "code": "ma5g",
    "city": "Rävlanda"
  },
  {
    "product": "11. Vesuvio",
    "price": 120,
    "variant": "",
    "restaurant": "Knuten Pizzeria",
    "postcode": "76150",
    "latitude": 59.7677778,
    "longitude": 18.6969444,
    "code": "b51r",
    "city": "Norrtälje"
  },
  {
    "product": "Vesuvio",
    "price": 95,
    "variant": "standard",
    "restaurant": "Marathon",
    "postcode": "21428",
    "latitude": 55.5859806,
    "longitude": 13.006008,
    "code": "yt83",
    "city": "Malmö"
  },
  {
    "product": "Vesuvio",
    "price": 115,
    "variant": "standard",
    "restaurant": "Pizzeria Tuppen",
    "postcode": "44850",
    "latitude": 57.8176579,
    "longitude": 12.4187896,
    "code": "ozya",
    "city": "Tollered"
  },
  {
    "product": "Vesuvio",
    "price": 129,
    "variant": "",
    "restaurant": "55:ans Pizzeria",
    "postcode": "72355",
    "latitude": 59.62155709,
    "longitude": 16.57365515,
    "code": "pdr4",
    "city": "Västerås"
  },
  {
    "product": "Vesuvio",
    "price": 110,
    "variant": "standard",
    "restaurant": "Restaurang Phoenix",
    "postcode": "73630",
    "latitude": 59.42221,
    "longitude": 16.09629,
    "code": "ldx5",
    "city": "Kungsör"
  },
  {
    "product": "Vesuvio",
    "price": 95,
    "variant": "standard",
    "restaurant": "Lindängens pizzeria",
    "postcode": "21574",
    "latitude": 55.559033,
    "longitude": 13.014635,
    "code": "v3eh",
    "city": "Malmö"
  },
  {
    "product": "Vesuvio",
    "price": 120,
    "variant": "Standard",
    "restaurant": "Pizzeria Campino",
    "postcode": "61632",
    "latitude": 58.6605439,
    "longitude": 16.1744716,
    "code": "idd6",
    "city": "Åby"
  },
  {
    "product": "Vesuvio",
    "price": 148,
    "variant": "",
    "restaurant": "Aktern & Fören",
    "postcode": "80302",
    "latitude": 60.6807682,
    "longitude": 17.1674613,
    "code": "s3vr",
    "city": "Gävle"
  },
  {
    "product": "Vesuvio",
    "price": 105,
    "variant": "Standard",
    "restaurant": "Malmö City Pizzeria",
    "postcode": "21141",
    "latitude": 55.60073817,
    "longitude": 13.00244866,
    "code": "sbua",
    "city": "Malmö"
  },
  {
    "product": "Vesuvio",
    "price": 110,
    "variant": "",
    "restaurant": "Fahem & Lahem Pizza & Grill",
    "postcode": "21216",
    "latitude": 55.5967403,
    "longitude": 13.029305,
    "code": "jz77",
    "city": "Malmö"
  },
  {
    "product": "Barn Vesuvio",
    "price": 89,
    "variant": "",
    "restaurant": "La Pasta Veloce",
    "postcode": "21532",
    "latitude": 55.56461909,
    "longitude": 12.97221992,
    "code": "bc4w",
    "city": "Malmö"
  },
  {
    "product": "Vesuvio",
    "price": 140,
    "variant": "standard",
    "restaurant": "Viking Pizzeria",
    "postcode": "26133",
    "latitude": 55.872378,
    "longitude": 12.834942,
    "code": "v2uf",
    "city": "Landskrona"
  },
  {
    "product": "Vesuvio",
    "price": 109,
    "variant": "",
    "restaurant": "Apadana Pizzeria & Restaurang",
    "postcode": "75328",
    "latitude": 59.86375,
    "longitude": 17.65857,
    "code": "s6up",
    "city": "Uppsala"
  },
  {
    "product": "Vesuvio standard",
    "price": 140,
    "variant": "",
    "restaurant": "Basic Bar & Kök",
    "postcode": "16967",
    "latitude": 59.36394795,
    "longitude": 18.01229943,
    "code": "i4ja",
    "city": "Solna"
  },
  {
    "product": "Vesuvio",
    "price": 133,
    "variant": "",
    "restaurant": "Kristinebergs Pizzeria",
    "postcode": "50442",
    "latitude": 57.707315,
    "longitude": 12.941721,
    "code": "snv4",
    "city": "Borås"
  },
  {
    "product": "Vesuvio",
    "price": 120,
    "variant": "",
    "restaurant": "Italian Guy",
    "postcode": "58273",
    "latitude": 58.4316345,
    "longitude": 15.5965697,
    "code": "oe1p",
    "city": "Linköping"
  },
  {
    "product": "Vesuvio",
    "price": 88,
    "variant": "Barnpizza",
    "restaurant": "Gustoso",
    "postcode": "64130",
    "latitude": 58.994309,
    "longitude": 16.205483,
    "code": "v8ei",
    "city": "Katrineholm"
  },
  {
    "product": "Vesuvio",
    "price": 115,
    "variant": "Barnpizza ",
    "restaurant": "Pizzeria Råbyrian",
    "postcode": "72470",
    "latitude": 59.6098322,
    "longitude": 16.4958491,
    "code": "a41t",
    "city": "Västerås"
  },
  {
    "product": "Vesuvio",
    "price": 140,
    "variant": "Standard",
    "restaurant": "Restaurang Erikslund",
    "postcode": "96167",
    "latitude": 65.826501,
    "longitude": 21.7146359,
    "code": "v5ez",
    "city": "Boden"
  },
  {
    "product": "Vesuvio",
    "price": 120,
    "variant": "",
    "restaurant": "Primos Restaurang",
    "postcode": "70224",
    "latitude": 59.2684302,
    "longitude": 15.2121438,
    "code": "infn",
    "city": "Örebro"
  },
  {
    "product": "Vesuvio",
    "price": 125,
    "variant": "Standard",
    "restaurant": "Sollentuna Pizzeria Express",
    "postcode": "19160",
    "latitude": 59.428342,
    "longitude": 17.9437576,
    "code": "vc9v",
    "city": "Sollentuna"
  },
  {
    "product": "Vesuvio",
    "price": 90,
    "variant": "Standard",
    "restaurant": "Hamn Pizzeria",
    "postcode": "93233",
    "latitude": 64.685729,
    "longitude": 21.2315354,
    "code": "s3qp",
    "city": "Skelleftehamn"
  },
  {
    "product": "Vesuvio",
    "price": 109,
    "variant": "standard",
    "restaurant": "Pizzeria Sigma",
    "postcode": "19436",
    "latitude": 59.525521,
    "longitude": 17.914532,
    "code": "v6sc",
    "city": "Upplands Väsby"
  },
  {
    "product": "Vesuvio",
    "price": 150,
    "variant": "standard",
    "restaurant": "Pizza Time",
    "postcode": "70224",
    "latitude": 59.266766,
    "longitude": 15.20876,
    "code": "ri3h",
    "city": "Örebro"
  },
  {
    "product": "Vesuvio",
    "price": 125,
    "variant": "Standard",
    "restaurant": "Pizzeria Etna",
    "postcode": "75333",
    "latitude": 59.8689461,
    "longitude": 17.6288449,
    "code": "nnla",
    "city": "Uppsala"
  },
  {
    "product": "Vesuvio",
    "price": 125,
    "variant": "",
    "restaurant": "Mimos Pizzeria",
    "postcode": "90432",
    "latitude": 63.8177261,
    "longitude": 20.247137,
    "code": "flde",
    "city": "Umeå"
  },
  {
    "product": "Vesuvio",
    "price": 169,
    "variant": "",
    "restaurant": "Ciao Ciao Grande",
    "postcode": "11444",
    "latitude": 59.33552245,
    "longitude": 18.0821603,
    "code": "s3pc",
    "city": "Stockholm"
  },
  {
    "product": "Vesuvio",
    "price": 122,
    "variant": "standard",
    "restaurant": "Pizzeria Oxen",
    "postcode": "39238",
    "latitude": 56.674445,
    "longitude": 16.334024,
    "code": "v4as",
    "city": "Kalmar"
  },
  {
    "product": "Vesuvio",
    "price": 109,
    "variant": "Standard",
    "restaurant": "Annexet Grillkök",
    "postcode": "81130",
    "latitude": 60.61792577,
    "longitude": 16.77712644,
    "code": "shz9",
    "city": "Sandviken"
  },
  {
    "product": "Vesuvio",
    "price": 110,
    "variant": "Barnpizza",
    "restaurant": "Pizzeria Grand",
    "postcode": "17741",
    "latitude": 59.43421,
    "longitude": 17.82449,
    "code": "s0ff",
    "city": "Stockholm"
  },
  {
    "product": "Vesuvio",
    "price": 105,
    "variant": "Standard",
    "restaurant": "Sunda Pizzeria",
    "postcode": "61336",
    "latitude": 58.675692,
    "longitude": 17.070659,
    "code": "v8oo",
    "city": "Oxelösund"
  },
  {
    "product": "Vesuvio",
    "price": 112,
    "variant": "Standard",
    "restaurant": "Nya Köket",
    "postcode": "94135",
    "latitude": 65.3347094,
    "longitude": 21.476191,
    "code": "sz22",
    "city": "Piteå"
  },
  {
    "product": "Vesuvio",
    "price": 80,
    "variant": "Liten 20 cm (Barnpizza)",
    "restaurant": "Pizzakaren Luleå",
    "postcode": "97232",
    "latitude": 65.5838261,
    "longitude": 22.1495985,
    "code": "llmy",
    "city": "Luleå"
  },
  {
    "product": "Vesuvio",
    "price": 129,
    "variant": "",
    "restaurant": "Dimos pizzeria",
    "postcode": "19535",
    "latitude": 59.6196625,
    "longitude": 17.8470836,
    "code": "kpoe",
    "city": "Märsta"
  },
  {
    "product": "2. Vesuvio",
    "price": 120,
    "variant": "Standard",
    "restaurant": "Los Panchos Pizza Kebab Gyros Sallader & Nachos",
    "postcode": "62147",
    "latitude": 57.6226656,
    "longitude": 18.27997645,
    "code": "t6lm",
    "city": "Visby"
  },
  {
    "product": "Vesuvio",
    "price": 100,
    "variant": "standard",
    "restaurant": "Nancy Corner Pizzeria",
    "postcode": "42137",
    "latitude": 57.666673,
    "longitude": 11.934616,
    "code": "i1ph",
    "city": "Västra Frölunda"
  },
  {
    "product": "Vesuvio",
    "price": 139,
    "variant": "standard",
    "restaurant": "Fast and Tasty",
    "postcode": "12458",
    "latitude": 59.264842,
    "longitude": 18.047928,
    "code": "t0th",
    "city": "Bandhagen"
  },
  {
    "product": "Vesuvio",
    "price": 120,
    "variant": "Standard",
    "restaurant": "Järnvägskiosken",
    "postcode": "79232",
    "latitude": 61.0090886,
    "longitude": 14.558144,
    "code": "hjje",
    "city": "Mora"
  },
  {
    "product": "Vesuvio",
    "price": 100,
    "variant": "Standard",
    "restaurant": "Restaurang Fortuna",
    "postcode": "78444",
    "latitude": 60.49745635,
    "longitude": 15.4301632,
    "code": "s6ru",
    "city": "Borlänge"
  },
  {
    "product": "Vesuvio",
    "price": 135,
    "variant": "Standard",
    "restaurant": "Pizza Marcus",
    "postcode": "43141",
    "latitude": 57.6639287,
    "longitude": 12.0113755,
    "code": "x5xi",
    "city": "Mölndal"
  },
  {
    "product": "Vesuvio",
    "price": 140,
    "variant": "",
    "restaurant": "Lilla Rustik Napolitansk Pizza",
    "postcode": "35234",
    "latitude": 56.8754896,
    "longitude": 14.8050186,
    "code": "m08u",
    "city": "Växjö"
  },
  {
    "product": "Vesuvio",
    "price": 121,
    "variant": "",
    "restaurant": "El Greco",
    "postcode": "44130",
    "latitude": 57.9273217,
    "longitude": 12.5309662,
    "code": "y9lf",
    "city": "Alingsås"
  },
  {
    "product": "Vesuvio",
    "price": 99,
    "variant": "standard",
    "restaurant": "Nya Lyckans pizzeria",
    "postcode": "65343",
    "latitude": 59.376321,
    "longitude": 13.461048,
    "code": "v6eq",
    "city": "Karlstad"
  },
  {
    "product": "Vesuvio",
    "price": 110,
    "variant": "",
    "restaurant": "Shill Dalbo",
    "postcode": "35230",
    "latitude": 56.8902686,
    "longitude": 14.7984145,
    "code": "tnx7",
    "city": "Växjö"
  },
  {
    "product": "Vesuvio",
    "price": 119,
    "variant": "Standard",
    "restaurant": "Skärholmen Snabbpizza Express",
    "postcode": "12743",
    "latitude": 59.2759116,
    "longitude": 17.8888025,
    "code": "s1mf",
    "city": "Skärholmen"
  },
  {
    "product": "Vesuvio",
    "price": 134,
    "variant": "Standard",
    "restaurant": "La Fontana",
    "postcode": "58330",
    "latitude": 58.39388,
    "longitude": 15.562208,
    "code": "s6pl",
    "city": "Linköping"
  },
  {
    "product": "Vesuvio",
    "price": 129,
    "variant": "",
    "restaurant": "Kärrtorp Krog",
    "postcode": "12155",
    "latitude": 59.28462421,
    "longitude": 18.1131054,
    "code": "wnbo",
    "city": "Johanneshov"
  },
  {
    "product": "Vesuvio",
    "price": 125,
    "variant": "",
    "restaurant": "Food Court: Norsborg",
    "postcode": "14568",
    "latitude": 59.2447944,
    "longitude": 17.8265354,
    "code": "dngb",
    "city": "Norsborg"
  },
  {
    "product": "Vesuvio ",
    "price": 155,
    "variant": "",
    "restaurant": "Massimo Linköping",
    "postcode": "58221",
    "latitude": 58.4175149,
    "longitude": 15.6204426,
    "code": "u4ca",
    "city": "Linköping"
  },
  {
    "product": "Vesuvio",
    "price": 125,
    "variant": "",
    "restaurant": "Food Court: Eksjö",
    "postcode": "57531",
    "latitude": 57.6674837,
    "longitude": 14.9785705,
    "code": "wsgh",
    "city": "Eksjö"
  },
  {
    "product": "Vesuvio",
    "price": 125,
    "variant": "Standard",
    "restaurant": "Åsens Grill & Pizzeria",
    "postcode": "63239",
    "latitude": 59.3861899,
    "longitude": 16.4323054,
    "code": "i8la",
    "city": "Eskilstuna"
  },
  {
    "product": "Vesuvio",
    "price": 110,
    "variant": "Standard",
    "restaurant": "Hallsberg Pizzeria",
    "postcode": "69431",
    "latitude": 59.066867,
    "longitude": 15.114707,
    "code": "xant",
    "city": "Hallsberg"
  },
  {
    "product": "Vesuvio",
    "price": 130,
    "variant": "",
    "restaurant": "Twist Bar & Kök",
    "postcode": "58437",
    "latitude": 58.4142406,
    "longitude": 15.5631011,
    "code": "iaaq",
    "city": "Linköping"
  },
  {
    "product": "Vesuvio",
    "price": 125,
    "variant": "",
    "restaurant": "Vera Napoletana",
    "postcode": "50334",
    "latitude": 57.7216382,
    "longitude": 12.94083749,
    "code": "o806",
    "city": "Borås"
  },
  {
    "product": "Vesuvio",
    "price": 115,
    "variant": "Standard",
    "restaurant": "Brothers Pizzeria",
    "postcode": "93139",
    "latitude": 64.75268345,
    "longitude": 20.98751535,
    "code": "k9cl",
    "city": "Skellefteå"
  },
  {
    "product": "Vesuvio Pizza",
    "price": 125,
    "variant": "",
    "restaurant": "Contessa",
    "postcode": "41263",
    "latitude": 57.68457868,
    "longitude": 11.9994289,
    "code": "ukve",
    "city": "Göteborg"
  },
  {
    "product": "Vesuvio",
    "price": 121,
    "variant": "Standard",
    "restaurant": "Dr Fries Pizzeria",
    "postcode": "41323",
    "latitude": 57.6838312,
    "longitude": 11.9720638,
    "code": "ap0d",
    "city": "Göteborg"
  },
  {
    "product": "Vesuvio",
    "price": 155,
    "variant": "Standard",
    "restaurant": "Sippan Pizzeria",
    "postcode": "72132",
    "latitude": 59.5973521,
    "longitude": 16.5265261,
    "code": "t1gz",
    "city": "Västerås"
  },
  {
    "product": "Vesuvio",
    "price": 95,
    "variant": "standard",
    "restaurant": "Mama mia",
    "postcode": "65350",
    "latitude": 59.4297158,
    "longitude": 13.4149999,
    "code": "v4cq",
    "city": "Karlstad"
  },
  {
    "product": "Vesuvio",
    "price": 109,
    "variant": "Standard",
    "restaurant": "Nya Pärlan Pizzeria",
    "postcode": "30225",
    "latitude": 56.6913154,
    "longitude": 12.8817413,
    "code": "ujo8",
    "city": "Halmstad"
  },
  {
    "product": "Vesuvio",
    "price": 99,
    "variant": "Standard",
    "restaurant": "Andersbergs Pizzeria",
    "postcode": "80277",
    "latitude": 60.65147,
    "longitude": 17.13869,
    "code": "s2tb",
    "city": "Gävle"
  },
  {
    "product": "Vesuvio",
    "price": 119,
    "variant": "Standard",
    "restaurant": "Al Forno Italiano",
    "postcode": "15139",
    "latitude": 59.15370347,
    "longitude": 17.649123,
    "code": "hxey",
    "city": "Södertälje"
  },
  {
    "product": "Vesuvio",
    "price": 129,
    "variant": "standard",
    "restaurant": "Väsby Pizzeria Express",
    "postcode": "19440",
    "latitude": 59.520662,
    "longitude": 17.894231,
    "code": "v9pq",
    "city": "Upplands Väsby"
  },
  {
    "product": "Langos Vesuvio",
    "price": 110,
    "variant": "",
    "restaurant": "Saxdalens Langos",
    "postcode": "77270",
    "latitude": 60.1462978,
    "longitude": 14.9867885,
    "code": "x6u3",
    "city": "Saxdalen"
  },
  {
    "product": "Vesuvio",
    "price": 125,
    "variant": "Standard",
    "restaurant": "Chefs",
    "postcode": "57133",
    "latitude": 57.660526,
    "longitude": 14.6905899,
    "code": "beee",
    "city": "Nässjö"
  },
  {
    "product": "Vesuvio",
    "price": 99,
    "variant": "standard",
    "restaurant": "San Remo Pizzeria",
    "postcode": "85232",
    "latitude": 62.39068,
    "longitude": 17.301311,
    "code": "v4bb",
    "city": "Sundsvall"
  },
  {
    "product": "Vesuvio",
    "price": 130,
    "variant": "",
    "restaurant": "Paloma",
    "postcode": "70367",
    "latitude": 59.2833991,
    "longitude": 15.22572657,
    "code": "nhc4",
    "city": "Örebro"
  },
  {
    "product": "Vesuvio",
    "price": 125,
    "variant": "Standard",
    "restaurant": "Plogen Restaurang & Pizzeria",
    "postcode": "13952",
    "latitude": 59.3243796,
    "longitude": 18.5307005,
    "code": "tos0",
    "city": "Värmdö"
  },
  {
    "product": "Vesuvio",
    "price": 134,
    "variant": "Standard",
    "restaurant": "Wally's Place Onsala",
    "postcode": "43491",
    "latitude": 57.4474608,
    "longitude": 12.0458101,
    "code": "j2hz",
    "city": "Kungsbacka"
  },
  {
    "product": "Vesuvio",
    "price": 120,
    "variant": "Standard",
    "restaurant": "Food Corner",
    "postcode": "24234",
    "latitude": 55.8527,
    "longitude": 13.66548,
    "code": "s6jm",
    "city": "Hörby"
  },
  {
    "product": "Vesuvio - Gourmet Pizza",
    "price": 105,
    "variant": "",
    "restaurant": "Pizzeria Lupo",
    "postcode": "21742",
    "latitude": 55.5953678,
    "longitude": 12.9907717,
    "code": "t2r9",
    "city": "Malmö"
  },
  {
    "product": "Vesuvio",
    "price": 140,
    "variant": "",
    "restaurant": "Pizza Napoletana",
    "postcode": "16353",
    "latitude": 59.3896564,
    "longitude": 17.8815769,
    "code": "h1i6",
    "city": "Spånga"
  },
  {
    "product": "Vesuvio",
    "price": 125,
    "variant": "standard",
    "restaurant": "Pizzeria Prisma",
    "postcode": "13644",
    "latitude": 59.174464,
    "longitude": 18.162676,
    "code": "v0ff",
    "city": "Handen"
  },
  {
    "product": "Vesuvio",
    "price": 145,
    "variant": "",
    "restaurant": "Oliven Due Östgötagatan",
    "postcode": "11664",
    "latitude": 59.30703,
    "longitude": 18.08041,
    "code": "s7ct",
    "city": "Stockholm"
  },
  {
    "product": "Vesuvio",
    "price": 139,
    "variant": "Standard",
    "restaurant": "Trappan Råbyvägen",
    "postcode": "75422",
    "latitude": 59.8700984,
    "longitude": 17.6479394,
    "code": "ouf2",
    "city": "Uppsala"
  },
  {
    "product": "Vesuvio",
    "price": 125,
    "variant": "Standard",
    "restaurant": "Dennis Kök (Dennis Pizzeria & Grill)",
    "postcode": "13647",
    "latitude": 59.18516,
    "longitude": 18.14746,
    "code": "iy1z",
    "city": "Haninge"
  },
  {
    "product": "Vesuvio",
    "price": 120,
    "variant": "Standard",
    "restaurant": "Pizzeria Hornaryd",
    "postcode": "33153",
    "latitude": 57.1837103,
    "longitude": 14.0289845,
    "code": "slxj",
    "city": "Värnamo"
  },
  {
    "product": "Vesuvio",
    "price": 105,
    "variant": "Standard",
    "restaurant": "Lant Grill",
    "postcode": "81171",
    "latitude": 60.7093977,
    "longitude": 16.6032679,
    "code": "zw8z",
    "city": "Järbo"
  },
  {
    "product": "Vesuvio",
    "price": 130,
    "variant": "",
    "restaurant": "Cyrano Alingsås",
    "postcode": "44130",
    "latitude": 57.92889,
    "longitude": 12.53167,
    "code": "s1zq",
    "city": "Alingsås"
  },
  {
    "product": "Vesuvio",
    "price": 145,
    "variant": "standard",
    "restaurant": "Monte Carlo",
    "postcode": "58246",
    "latitude": 58.408284,
    "longitude": 15.601362,
    "code": "v1il",
    "city": "Linköping"
  },
  {
    "product": "Vesuvio",
    "price": 130,
    "variant": "Standard",
    "restaurant": "Pizzeria Babylon",
    "postcode": "33150",
    "latitude": 57.18387949,
    "longitude": 14.0306266,
    "code": "qaui",
    "city": "Värnamo"
  },
  {
    "product": "Vesuvio",
    "price": 130,
    "variant": "Standard",
    "restaurant": "Svandamms Pizzeria",
    "postcode": "14931",
    "latitude": 58.898859,
    "longitude": 17.942358,
    "code": "phhc",
    "city": "Nynäshamn"
  },
  {
    "product": "Vesuvio",
    "price": 105,
    "variant": "standard",
    "restaurant": "Hillerian Pizzeria & Pub",
    "postcode": "80649",
    "latitude": 60.722401,
    "longitude": 17.171411,
    "code": "v7mq",
    "city": "Gävle"
  },
  {
    "product": "Vesuvio",
    "price": 105,
    "variant": "",
    "restaurant": "Åliven",
    "postcode": "25452",
    "latitude": 56.0669197,
    "longitude": 12.7061597,
    "code": "e8bk",
    "city": "Helsingborg"
  },
  {
    "product": "Vesuvio",
    "price": 105,
    "variant": "",
    "restaurant": "La Luna Pizzeria",
    "postcode": "63356",
    "latitude": 59.36480505,
    "longitude": 16.51746995,
    "code": "s9qa",
    "city": "Eskilstuna"
  },
  {
    "product": "Vesuvio",
    "price": 110,
    "variant": "Standard",
    "restaurant": "Z Pizzeria",
    "postcode": "37436",
    "latitude": 56.1700826,
    "longitude": 14.864762,
    "code": "vv23",
    "city": "Karlshamn"
  },
  {
    "product": "Vesuvio",
    "price": 100,
    "variant": "Standard",
    "restaurant": "Godfather",
    "postcode": "51158",
    "latitude": 57.5048723,
    "longitude": 12.6990049,
    "code": "g0v9",
    "city": "Kinna"
  },
  {
    "product": "Vesuvio",
    "price": 95,
    "variant": "standard",
    "restaurant": "American Pizza",
    "postcode": "61130",
    "latitude": 58.752272,
    "longitude": 17.002964,
    "code": "v9jx",
    "city": "Nyköping"
  },
  {
    "product": "Vesuvio",
    "price": 110,
    "variant": "Standard",
    "restaurant": "Mama Mia Pizzeria",
    "postcode": "43363",
    "latitude": 57.733093,
    "longitude": 12.08044,
    "code": "s9hc",
    "city": "Sävedalen"
  },
  {
    "product": "Vesuvio",
    "price": 110,
    "variant": "Standard",
    "restaurant": "Restaurang MÅLET",
    "postcode": "89142",
    "latitude": 63.31476,
    "longitude": 18.702095,
    "code": "gwy6",
    "city": "Örnsköldsvik"
  },
  {
    "product": "Vesuvio Pizza",
    "price": 159,
    "variant": "",
    "restaurant": "Slice Pizza Björkskatan",
    "postcode": "97633",
    "latitude": 65.615595,
    "longitude": 22.1767852,
    "code": "mvxp",
    "city": "Luleå"
  },
  {
    "product": "Vesuvio",
    "price": 129,
    "variant": "",
    "restaurant": "Pizza Hut Hallunda",
    "postcode": "14565",
    "latitude": 59.2402939,
    "longitude": 17.82854755,
    "code": "z0rn",
    "city": "Norsborg"
  },
  {
    "product": "Vesuvio",
    "price": 165,
    "variant": "Standard",
    "restaurant": "Pizzeria Napoli",
    "postcode": "17263",
    "latitude": 59.3565181,
    "longitude": 17.9713409,
    "code": "t7jr",
    "city": "Sundbyberg"
  },
  {
    "product": "Vesuvio",
    "price": 120,
    "variant": "standard",
    "restaurant": "Pizzeria Venedig",
    "postcode": "39234",
    "latitude": 56.6652912,
    "longitude": 16.3526619,
    "code": "v3ou",
    "city": "Kalmar"
  },
  {
    "product": "Vesuvio",
    "price": 125,
    "variant": "Standard",
    "restaurant": "Pizzahuset",
    "postcode": "13444",
    "latitude": 59.3114712,
    "longitude": 18.4243289,
    "code": "jt42",
    "city": "Gustavsberg"
  },
  {
    "product": "Vesuvio",
    "price": 139,
    "variant": "",
    "restaurant": "Svenska Pizzaköket",
    "postcode": "12637",
    "latitude": 59.3004031,
    "longitude": 18.0039575,
    "code": "eskz",
    "city": "Hägersten"
  },
  {
    "product": "Vesuvio",
    "price": 110,
    "variant": "standard",
    "restaurant": "Libanon House",
    "postcode": "37161",
    "latitude": 56.196817,
    "longitude": 15.665844,
    "code": "v3jm",
    "city": "Lyckeby"
  },
  {
    "product": "Vesuvio",
    "price": 135,
    "variant": "Standard",
    "restaurant": "75Kvadrat",
    "postcode": "19446",
    "latitude": 59.5198,
    "longitude": 17.89345,
    "code": "s2ih",
    "city": "Upplands Väsby"
  },
  {
    "product": "Vesuvio",
    "price": 129,
    "variant": "",
    "restaurant": "Pizza Hut Jönköping",
    "postcode": "55305",
    "latitude": 57.7723528,
    "longitude": 14.19695356,
    "code": "s6if",
    "city": "Jönköping"
  },
  {
    "product": "Vesuvio",
    "price": 124,
    "variant": "Standard",
    "restaurant": "Pizzeria Viking",
    "postcode": "70214",
    "latitude": 59.26961,
    "longitude": 15.22459,
    "code": "s0sk",
    "city": "Örebro"
  },
  {
    "product": "Vesuvio",
    "price": 100,
    "variant": "Standard",
    "restaurant": "Piccolo Mondo i Sandviken",
    "postcode": "81160",
    "latitude": 60.60515645,
    "longitude": 16.76047165,
    "code": "w92i",
    "city": "Sandviken"
  },
  {
    "product": "Vesuvio",
    "price": 119,
    "variant": "",
    "restaurant": "Sannegårdens Pizzeria Majorna",
    "postcode": "41470",
    "latitude": 57.68713127,
    "longitude": 11.9248784,
    "code": "y1ub",
    "city": "Göteborg"
  },
  {
    "product": "Vesuvio",
    "price": 120,
    "variant": "",
    "restaurant": "Olivia Pizzeria",
    "postcode": "72130",
    "latitude": 59.6050407,
    "longitude": 16.5509321,
    "code": "c2de",
    "city": "Västerås"
  },
  {
    "product": "Vesuvio",
    "price": 120,
    "variant": "Standard",
    "restaurant": "Jordbros Pizzeria & Restaurang",
    "postcode": "13652",
    "latitude": 59.13806586,
    "longitude": 18.13965881,
    "code": "s5bp",
    "city": "Jordbro"
  },
  {
    "product": "Vesuvio",
    "price": 105,
    "variant": "standard",
    "restaurant": "Venezia Pizzeria",
    "postcode": "64130",
    "latitude": 58.995335,
    "longitude": 16.204222,
    "code": "v4wg",
    "city": "Katrineholm"
  },
  {
    "product": "Vesuvio",
    "price": 125,
    "variant": "Standard",
    "restaurant": "Pizzeria Hörnan Tensta",
    "postcode": "16364",
    "latitude": 59.3945182,
    "longitude": 17.9062767,
    "code": "s3vo",
    "city": "Stockholm"
  },
  {
    "product": "Vesuvio",
    "price": 129,
    "variant": "Standard",
    "restaurant": "Grillholken och Pizzeria",
    "postcode": "14648",
    "latitude": 59.21888,
    "longitude": 17.90638,
    "code": "v6vt",
    "city": "Tullinge"
  },
  {
    "product": "Vesuvio",
    "price": 130,
    "variant": "standard",
    "restaurant": "Järva Pizzeria",
    "postcode": "17062",
    "latitude": 59.382906,
    "longitude": 17.982064,
    "code": "s5qi",
    "city": "Solna"
  },
  {
    "product": "Vesuvio",
    "price": 110,
    "variant": "Standard",
    "restaurant": "Old Town",
    "postcode": "46335",
    "latitude": 58.1082302,
    "longitude": 12.1493053,
    "code": "hsvq",
    "city": "Göta"
  },
  {
    "product": "Vesuvio",
    "price": 109,
    "variant": "Standard",
    "restaurant": "Kvarnens Pizzeria",
    "postcode": "65229",
    "latitude": 59.375179,
    "longitude": 13.4836787,
    "code": "v5ws",
    "city": "Karlstad"
  },
  {
    "product": "2. Vesuvio",
    "price": 120,
    "variant": "Standard",
    "restaurant": "Valentins Pizzeria",
    "postcode": "23152",
    "latitude": 55.3747453,
    "longitude": 13.1611994,
    "code": "bukf",
    "city": "Trelleborg"
  },
  {
    "product": "Vesuvio",
    "price": 105,
    "variant": "",
    "restaurant": "Kvarnens Pizzeria City",
    "postcode": "65224",
    "latitude": 59.38157934,
    "longitude": 13.50415114,
    "code": "s5sp",
    "city": "Karlstad"
  },
  {
    "product": "Vesuvio",
    "price": 119,
    "variant": "Standard",
    "restaurant": "Pizzeria Maxi",
    "postcode": "69134",
    "latitude": 59.3285451,
    "longitude": 14.507593,
    "code": "cj8j",
    "city": "Karlskoga"
  },
  {
    "product": "Vesuvio",
    "price": 100,
    "variant": "",
    "restaurant": "Holmängens Pizzeria & Grill",
    "postcode": "46332",
    "latitude": 58.37582626,
    "longitude": 12.3418796,
    "code": "s4i2",
    "city": "Vänersborg"
  },
  {
    "product": "Vesuvio",
    "price": 139,
    "variant": "",
    "restaurant": "Kitchen & Burger",
    "postcode": "72217",
    "latitude": 59.6224292,
    "longitude": 16.5264925,
    "code": "ud36",
    "city": "Västerås"
  },
  {
    "product": "Vesuvio",
    "price": 149,
    "variant": "",
    "restaurant": "Pizzeria Oasen",
    "postcode": "14262",
    "latitude": 59.2300151,
    "longitude": 18.1361206,
    "code": "xuqe",
    "city": "Trångsund"
  },
  {
    "product": "Vesuvio",
    "price": 115,
    "variant": "Standard",
    "restaurant": "Asmundtorp pizzeria",
    "postcode": "26175",
    "latitude": 55.8868697,
    "longitude": 12.9515753,
    "code": "dahi",
    "city": "Asmundtorp"
  },
  {
    "product": "4. Vesuvio",
    "price": 115,
    "variant": "Standard",
    "restaurant": "Smått och Gott",
    "postcode": "44431",
    "latitude": 58.070721,
    "longitude": 11.821751,
    "code": "tbm7",
    "city": "Stenungsund"
  },
  {
    "product": "Vesuvio",
    "price": 119,
    "variant": "Standard ",
    "restaurant": "Castle of Antep",
    "postcode": "65225",
    "latitude": 59.3792651,
    "longitude": 13.4962912,
    "code": "t2qg",
    "city": "Karlstad"
  },
  {
    "product": "Vesuvio",
    "price": 125,
    "variant": "",
    "restaurant": "Kens Stenhagen",
    "postcode": "75267",
    "latitude": 59.84923125,
    "longitude": 17.5592832,
    "code": "r7z8",
    "city": "Uppsala"
  },
  {
    "product": "Vesuvio",
    "price": 120,
    "variant": "Standard",
    "restaurant": "Tibble Pizzeria",
    "postcode": "19634",
    "latitude": 59.480063,
    "longitude": 17.732699,
    "code": "rsql",
    "city": "Kungsängen"
  },
  {
    "product": "Vesuvio",
    "price": 85,
    "variant": "",
    "restaurant": "Vontroils",
    "postcode": "21373",
    "latitude": 55.58587139,
    "longitude": 13.050277,
    "code": "gpfl",
    "city": "Malmö"
  },
  {
    "product": "Vesuvio",
    "price": 105,
    "variant": "Standard",
    "restaurant": "Alpino Pizzeria",
    "postcode": "25246",
    "latitude": 56.0395789,
    "longitude": 12.7135541,
    "code": "fro8",
    "city": "Helsingborg"
  },
  {
    "product": "Vesuvio",
    "price": 99,
    "variant": "standard",
    "restaurant": "Grafitgrillen",
    "postcode": "46138",
    "latitude": 58.29852889,
    "longitude": 12.32117087,
    "code": "v9tc",
    "city": "Trollhättan"
  },
  {
    "product": "Vesuvio.",
    "price": 100,
    "variant": "Standard",
    "restaurant": "Restaurang Viola",
    "postcode": "85462",
    "latitude": 62.3740914,
    "longitude": 17.3534722,
    "code": "ykrx",
    "city": "Sundsvall"
  },
  {
    "product": "Vesuvio",
    "price": 119,
    "variant": "Standard",
    "restaurant": "Nyfiken",
    "postcode": "45333",
    "latitude": 58.2743484,
    "longitude": 11.4367126,
    "code": "d0dx",
    "city": "Lysekil"
  },
  {
    "product": "Vesuvio",
    "price": 129,
    "variant": "",
    "restaurant": "Pizza Hut Täby",
    "postcode": "18339",
    "latitude": 59.4434107,
    "longitude": 18.07001129,
    "code": "k3b5",
    "city": "Täby"
  },
  {
    "product": "Vesuvio",
    "price": 90,
    "variant": "standard",
    "restaurant": "Victoria pizzeria",
    "postcode": "93153",
    "latitude": 64.722934,
    "longitude": 21.081188,
    "code": "v8xm",
    "city": "Skellefteå"
  },
  {
    "product": "Vesuvio",
    "price": 132,
    "variant": "",
    "restaurant": "Anatolia Grill",
    "postcode": "51162",
    "latitude": 57.4870054,
    "longitude": 12.6497114,
    "code": "atma",
    "city": "Skene"
  },
  {
    "product": "Vesuvio",
    "price": 110,
    "variant": "Standard",
    "restaurant": "Kök & Bar 88",
    "postcode": "26337",
    "latitude": 56.2003967,
    "longitude": 12.5529993,
    "code": "hnt4",
    "city": "Höganäs"
  },
  {
    "product": "Vesuvio",
    "price": 115,
    "variant": "Standard",
    "restaurant": "Regementet Pizzeria & Grill",
    "postcode": "41527",
    "latitude": 57.73805625,
    "longitude": 12.02990596,
    "code": "o8g7",
    "city": "Göteborg"
  },
  {
    "product": "Vesuvio",
    "price": 100,
    "variant": "Standard",
    "restaurant": "Pizzeria Roma",
    "postcode": "55317",
    "latitude": 57.7811956,
    "longitude": 14.1627585,
    "code": "se8l",
    "city": "Jönköping"
  },
  {
    "product": "Vesuvio",
    "price": 115,
    "variant": "Standard",
    "restaurant": "Caspian Pizzeria & Bar",
    "postcode": "75434",
    "latitude": 59.8666824,
    "longitude": 17.66624644,
    "code": "wctm",
    "city": "Uppsala"
  },
  {
    "product": "Vesuvio",
    "price": 115,
    "variant": "Standard",
    "restaurant": "Venezia Pizzeria",
    "postcode": "53133",
    "latitude": 58.4983079,
    "longitude": 13.1817134,
    "code": "av9r",
    "city": "Lidköping"
  },
  {
    "product": "Vesuvio",
    "price": 100,
    "variant": "Standard",
    "restaurant": "Jasmin Al Sham",
    "postcode": "77435",
    "latitude": 60.138822,
    "longitude": 16.1581098,
    "code": "zv65",
    "city": "Avesta"
  },
  {
    "product": "Vesuvio",
    "price": 109,
    "variant": "",
    "restaurant": "Tre Kronor",
    "postcode": "29132",
    "latitude": 56.0330559,
    "longitude": 14.1538481,
    "code": "jawc",
    "city": "Kristianstad"
  },
  {
    "product": "Vesuvio",
    "price": 119,
    "variant": "Standard",
    "restaurant": "Gammlia Pizzeria",
    "postcode": "90342",
    "latitude": 63.8278377,
    "longitude": 20.2842282,
    "code": "vlzt",
    "city": "Umeå"
  },
  {
    "product": "Vesuvio",
    "price": 155,
    "variant": "",
    "restaurant": "Pizzeria Finntorp",
    "postcode": "13137",
    "latitude": 59.30834992,
    "longitude": 18.142544,
    "code": "t1rt",
    "city": "Nacka"
  },
  {
    "product": "Vesuvio",
    "price": 100,
    "variant": "standard",
    "restaurant": "Pizzeria Palma",
    "postcode": "59837",
    "latitude": 57.666011,
    "longitude": 15.856647,
    "code": "lvcw",
    "city": "Vimmerby"
  },
  {
    "product": "Vesuvio",
    "price": 110,
    "variant": "Standard",
    "restaurant": "Pizzeria Rimini",
    "postcode": "86240",
    "latitude": 62.26773,
    "longitude": 17.37622,
    "code": "s2sp",
    "city": "Njurunda"
  },
  {
    "product": "Vesuvio",
    "price": 120,
    "variant": "",
    "restaurant": "Carola Pizzeria Arendals Allé",
    "postcode": "41879",
    "latitude": 57.6983695,
    "longitude": 11.8268191,
    "code": "vgx4",
    "city": "Göteborg"
  },
  {
    "product": "Vesuvio",
    "price": 120,
    "variant": "Standard",
    "restaurant": "Bohus Pizzeria",
    "postcode": "44537",
    "latitude": 57.851315,
    "longitude": 12.016382,
    "code": "s9em",
    "city": "Bohus"
  },